station_id,:version,:created_at,north_direction_label,line,daytime_routes,complex_id,division,ada_southbound,stop_id,structure,ada_notes,stop_name,longitude,ada_northbound,:updated_at,ada,:id,south_direction_label,cbd,borough,latitude
408,rv-jv3d_4mr4-bm4c,2024-08-22T18:09:47.728Z,Uptown,Lexington Av,6,619,IRT,1,637,Subway,,Bleecker St,-73.994659,1,2024-08-22T18:09:53.410Z,1,row-hcaa_6gd7-hry8,Downtown,TRUE,M,40.725915
505,rv-k3xn-s9zx-4jyc,2024-08-22T18:09:47.728Z,Ferry,Staten Island,SIR,505,SIR,0,S27,Open Cut,,Grasmere,-74.084087,0,2024-08-22T18:09:53.410Z,0,row-myq6_k6jd-apqt,South Shore,FALSE,SI,40.603117
467,rv-5vud~6bnz_qzpp,2024-08-22T18:09:47.728Z,Queens,Flushing,7,611,IRT,1,725,Subway,,Times Sq-42 St,-73.987691,1,2024-08-22T18:09:53.410Z,1,row-4x4j-7jkt.sqfw,Hudson Yards,TRUE,M,40.755477
507,rv-s989~p66j~9ppd,2024-08-22T18:09:47.728Z,Ferry,Staten Island,SIR,507,SIR,1,S25,Embankment,,Dongan Hills,-74.09609,1,2024-08-22T18:09:53.410Z,1,row-qwzh_654r_9aid,South Shore,FALSE,SI,40.588849
475,rv-fs5i~qbkp-44qz,2024-08-22T18:09:47.728Z,Last Stop,Second Av,Q,475,IND,1,Q05,Subway,,96 St,-73.947152,1,2024-08-22T18:09:53.410Z,1,row-mapp.89c6.9799,Downtown,FALSE,M,40.784318
501,rv-bt4h-s977_5p3m,2024-08-22T18:09:47.728Z,Last Stop,Staten Island,SIR,501,SIR,1,S31,Open Cut,,St George,-74.073643,1,2024-08-22T18:09:53.410Z,1,row-t6js-wmtu.eb6b,South Shore,FALSE,SI,40.643748
518,rv-vg55-pqce-kkax,2024-08-22T18:09:47.728Z,Ferry,Staten Island,SIR,518,SIR,0,S14,Embankment,,Pleasant Plains,-74.217847,0,2024-08-22T18:09:53.410Z,0,row-aua5-xt27-6mfd,South Shore,FALSE,SI,40.52241
511,rv-7zgj_z7m5-n292,2024-08-22T18:09:47.728Z,Ferry,Staten Island,SIR,511,SIR,0,S21,Open Cut,,Oakwood Heights,-74.12632,0,2024-08-22T18:09:53.410Z,0,row-mu2z~4p3v~zsei,South Shore,FALSE,SI,40.56511
506,rv-csr7_dw34-z4zk,2024-08-22T18:09:47.728Z,Ferry,Staten Island,SIR,506,SIR,0,S26,Embankment,,Old Town,-74.087368,0,2024-08-22T18:09:53.410Z,0,row-99hk-vd5i_4zq3,South Shore,FALSE,SI,40.596612
510,rv-dgqy_4hye~mss7,2024-08-22T18:09:47.728Z,Ferry,Staten Island,SIR,510,SIR,1,S22,Open Cut,,New Dorp,-74.11721,1,2024-08-22T18:09:53.410Z,1,row-4b29~5mf4~ggtm,South Shore,FALSE,SI,40.57348
519,rv-btjn.h35d-m8xs,2024-08-22T18:09:47.728Z,Ferry,Staten Island,SIR,519,SIR,0,S13,Open Cut,,Richmond Valley,-74.229141,0,2024-08-22T18:09:53.410Z,0,row-cxj8.et5d-u9u4,Tottenville,FALSE,SI,40.519631
70,rv-rwqc~nbfv.zaaa,2024-08-22T18:09:47.728Z,Manhattan,West End,D,70,BMT,0,B23,Elevated,,Bay 50 St,-73.983765,0,2024-08-22T18:09:53.410Z,0,row-6f3d.5ju4~u6qe,Coney Island,FALSE,Bk,40.588841
365,rv-wr9j-qbdg.wyx7,2024-08-22T18:09:47.728Z,Pelham Bay,Pelham,6,365,IRT,0,607,Elevated,,Castle Hill Av,-73.851222,0,2024-08-22T18:09:53.410Z,0,row-3566.mr4w-75zq,Manhattan,FALSE,Bx,40.834255
139,rv-yaj5-x2iw-vd6a,2024-08-22T18:09:47.728Z,Last Stop,Franklin Shuttle,S,627,BMT,1,S01,Elevated,,Franklin Av,-73.955827,1,2024-08-22T18:09:53.410Z,1,row-zziv.yhye~kpy4,Prospect Park,FALSE,Bk,40.680596
102,rv-gtkm_qddz_e2nb,2024-08-22T18:09:47.728Z,Brooklyn,Jamaica,M J Z,625,BMT,0,M18,Subway,,Delancey St-Essex St,-73.987437,0,2024-08-22T18:09:53.410Z,0,row-uecq~9kzb~49d2,Inbound,TRUE,M,40.718315
347,rv-ke62-qube_qtnc,2024-08-22T18:09:47.728Z,Manhattan,Eastern Pky,3,347,IRT,0,252,Elevated,,Saratoga Av,-73.916327,0,2024-08-22T18:09:53.410Z,0,row-n6b4-382r.2y2a,New Lots,FALSE,Bk,40.661453
333,rv-6s6g.594r_2hgi,2024-08-22T18:09:47.728Z,Uptown,Clark St,2 3,333,IRT,0,230,Subway,,Wall St,-74.0091,0,2024-08-22T18:09:53.410Z,0,row-7q2k.cmk3-7hgf,Brooklyn,TRUE,M,40.706821
249,rv-viqr.fxkq-fvs9,2024-08-22T18:09:47.728Z,Manhattan,6th Av - Culver,F,249,IND,0,F34,Elevated,,Avenue P,-73.973022,0,2024-08-22T18:09:53.410Z,0,row-ms2s.4kzy~z4x9,Southbound,FALSE,Bk,40.608944
234,rv-wzfj_d8f8_kjkw,2024-08-22T18:09:47.728Z,Uptown,6th Av - Culver,F,234,IND,0,F16,Subway,,East Broadway,-73.990173,0,2024-08-22T18:09:53.410Z,0,row-k7k7_zwwn.dk93,Brooklyn,TRUE,M,40.713715
1,rv-3kg6.597f_7wzz,2024-08-22T18:09:47.728Z,Last Stop,Astoria,N W,1,BMT,0,R01,Elevated,,Astoria-Ditmars Blvd,-73.912034,0,2024-08-22T18:09:53.410Z,0,row-fzb5_m2mr.gn6s,Manhattan,FALSE,Q,40.775036
89,rv-gkab_u5bb-fdv5,2024-08-22T18:09:47.728Z,Outbound,Jamaica,J,89,BMT,0,J22,Elevated,,Cleveland St,-73.884639,0,2024-08-22T18:09:53.410Z,0,row-uuhv~2r4u-s9cw,Manhattan,FALSE,Bk,40.679947
352,rv-wqi8_k2gg-4rj8,2024-08-22T18:09:47.728Z,Manhattan,Eastern Pky,3,352,IRT,0,257,Elevated,,New Lots Av,-73.884079,0,2024-08-22T18:09:53.410Z,0,row-62n7_5xzb.x3j2,Last Stop,FALSE,Bk,40.666235
170,rv-tasu~823i.6wdc,2024-08-22T18:09:47.728Z,Uptown,8th Av - Fulton St,A C,624,IND,0,A36,Subway,,Chambers St,-74.008585,0,2024-08-22T18:09:53.410Z,0,row-779a.gjwj-t77k,Brooklyn,TRUE,M,40.714111
116,rv-xzkg.v6qq~ixcp,2024-08-22T18:09:47.728Z,West Side,Canarsie,L,601,BMT,1,L02,Subway,,6 Av,-73.996786,1,2024-08-22T18:09:53.410Z,1,row-9aph.jsdw~bkhi,Brooklyn,TRUE,M,40.737335
217,rv-uh83~4aw2-jtr4,2024-08-22T18:09:47.728Z,Northbound,Concourse,B D,217,IND,0,D09,Subway,,170 St,-73.9134,0,2024-08-22T18:09:53.410Z,0,row-nnd8.mh5s_izsn,Manhattan,FALSE,Bx,40.839306
276,rv-6yqr~iu49.k6a5,2024-08-22T18:09:47.728Z,Queens,Queens Blvd,E M,276,IND,0,F12,Subway,,5 Av/53 St,-73.975224,0,2024-08-22T18:09:53.410Z,0,row-vvmt.8uzm.p3ac,Downtown,TRUE,M,40.760167
308,rv-m3cn.b3wm.c35z,2024-08-22T18:09:47.728Z,Uptown,Broadway - 7Av,1,308,IRT,0,118,Subway,,Cathedral Pkwy (110 St),-73.966847,0,2024-08-22T18:09:53.410Z,0,row-pyiw~cjwn-tth9,Downtown,FALSE,M,40.803967
6,rv-7akj.nhhi-wzyg,2024-08-22T18:09:47.728Z,Astoria,Astoria,N W,6,BMT,0,R08,Elevated,,39 Av-Dutch Kills,-73.932755,0,2024-08-22T18:09:53.410Z,0,row-i5ec_pdy7~iqeg,Manhattan,FALSE,Q,40.752882
449,rv-g6vf.i729-rgas,2024-08-22T18:09:47.728Z,Outbound,Flushing,7,449,IRT,0,705,Elevated,,111 St,-73.855334,0,2024-08-22T18:09:53.410Z,0,row-kygg~5nin.5eb6,Manhattan,FALSE,Q,40.75173
121,rv-xv3f_u9uu-yt32,2024-08-22T18:09:47.728Z,Manhattan,Canarsie,L,629,BMT,1,L10,Subway,,Lorimer St,-73.950275,1,2024-08-22T18:09:53.410Z,1,row-nu9d~7auy~y78y,Outbound,FALSE,Bk,40.714063
247,rv-dtft-txep-cbjt,2024-08-22T18:09:47.728Z,Manhattan,6th Av - Culver,F,247,IND,0,F32,Elevated,,Bay Pkwy,-73.975264,0,2024-08-22T18:09:53.410Z,0,row-nct7~8wvw-gkav,Southbound,FALSE,Bk,40.620769
379,rv-vanb-gyzg~a3hh,2024-08-22T18:09:47.728Z,Woodlawn,Jerome Av,4,379,IRT,0,402,Elevated,,Mosholu Pkwy,-73.884655,0,2024-08-22T18:09:53.410Z,0,row-64kj~cx87-vsau,Manhattan,FALSE,Bx,40.87975
440,rv-2rmd_76b3.ui93,2024-08-22T18:09:47.728Z,Uptown,Lenox - White Plains Rd,2 3,440,IRT,0,226,Subway,,116 St,-73.949625,0,2024-08-22T18:09:53.410Z,0,row-eaq5-rf44.hi53,Downtown,FALSE,M,40.802098
269,rv-j93w-24qs_d9fi,2024-08-22T18:09:47.728Z,Outbound,Queens Blvd,M R,269,IND,0,G16,Subway,,Northern Blvd,-73.906006,0,2024-08-22T18:09:53.410Z,0,row-7ejw_jqnf_sv9k,Manhattan,FALSE,Q,40.752885
202,rv-8zpz.hq25~2xhq,2024-08-22T18:09:47.728Z,Inbound,Rockaway,A S,202,IND,0,H14,Viaduct,,Beach 105 St,-73.827559,0,2024-08-22T18:09:53.410Z,0,row-q42e_fivv-8frb,Rockaway Park,FALSE,Q,40.583209
11,rv-85h9_5ehk.4qd3,2024-08-22T18:09:47.728Z,Uptown,Broadway - Brighton,N Q R W,611,BMT,1,R16,Subway,,Times Sq-42 St,-73.986754,1,2024-08-22T18:09:53.410Z,1,row-jk7z~zy96-54e9,Downtown,TRUE,M,40.754672
385,rv-47qg_cstd-esdp,2024-08-22T18:09:47.728Z,Northbound,Jerome Av,4,385,IRT,0,410,Elevated,,176 St,-73.911794,0,2024-08-22T18:09:53.410Z,0,row-cqhj.kpzb~7myk,Manhattan,FALSE,Bx,40.84848
384,rv-aanu_9yzy.eksj,2024-08-22T18:09:47.728Z,Northbound,Jerome Av,4,384,IRT,0,409,Elevated,,Burnside Av,-73.907684,0,2024-08-22T18:09:53.410Z,0,row-wq9y-3rp9-324x,Manhattan,FALSE,Bx,40.853453
57,rv-4abp_kdby~ma47,2024-08-22T18:09:47.728Z,Manhattan,Broadway - Brighton,F Q,57,BMT,0,D42,Elevated,,W 8 St-NY Aquarium,-73.975939,0,2024-08-22T18:09:53.410Z,0,row-fidr-44pv.dqbf,Coney Island,FALSE,Bk,40.576127
144,rv-bv4p.c4gt_f8kn,2024-08-22T18:09:47.728Z,Uptown,8th Av - Fulton St,A,144,IND,0,A03,Subway,,Dyckman St,-73.927271,0,2024-08-22T18:09:53.410Z,0,row-ghae.bzt5_t275,Downtown,FALSE,M,40.865491
340,rv-33c9.nfgv-7r27,2024-08-22T18:09:47.728Z,Manhattan,Eastern Pky,2 3,340,IRT,0,237,Subway,,Grand Army Plaza,-73.971046,0,2024-08-22T18:09:53.410Z,0,row-e4sn_sicz.uxb2,Outbound,FALSE,Bk,40.675235
154,rv-2men.7dqf_55xb,2024-08-22T18:09:47.728Z,Uptown,8th Av - Fulton St,C B,154,IND,0,A16,Subway,,116 St,-73.954882,0,2024-08-22T18:09:53.410Z,0,row-8abn-6nvy.58wq,Downtown,FALSE,M,40.805085
174,rv-idb8-tvu7.uxjt,2024-08-22T18:09:47.728Z,Manhattan,8th Av - Fulton St,A C F,636,IND,1,A41,Subway,,Jay St-MetroTech,-73.987342,1,2024-08-22T18:09:53.410Z,1,row-cbnn-kpmr_izhb,Outbound,FALSE,Bk,40.692338
404,rv-z3r8~ajch_t839,2024-08-22T18:09:47.728Z,Uptown,Lexington Av,6,404,IRT,1,633,Subway,Downtown only,28 St,-73.984264,0,2024-08-22T18:09:53.410Z,2,row-z7vs-bk48_hr3c,Downtown,TRUE,M,40.74307
185,rv-n4z8~q3ba~txfs,2024-08-22T18:09:47.728Z,Manhattan,8th Av - Fulton St,C,185,IND,0,A52,Subway,,Liberty Av,-73.896548,0,2024-08-22T18:09:53.410Z,0,row-bxz5_hnjh_zg65,Outbound,FALSE,Bk,40.674542
43,rv-tr67-rvt6_d9y4,2024-08-22T18:09:47.728Z,Manhattan,Broadway - Brighton,Q,43,BMT,0,D27,Open Cut,,Parkside Av,-73.961495,0,2024-08-22T18:09:53.410Z,0,row-9hgu-fyjz.hcvz,Southbound,FALSE,Bk,40.655292
417,rv-8scr_gkyh.ha7d,2024-08-22T18:09:47.728Z,Northbound,Lenox - White Plains Rd,2 5,417,IRT,0,204,Elevated,,Nereid Av,-73.854376,0,2024-08-22T18:09:53.410Z,0,row-pake_z4xf.3rzw,Manhattan,FALSE,Bx,40.898379
25,rv-c6q2.nidd-jwqw,2024-08-22T18:09:47.728Z,Manhattan,Broadway,R,636,BMT,1,R29,Subway,,Jay St-MetroTech,-73.985942,1,2024-08-22T18:09:53.410Z,1,row-8fyg~d7nv.szar,Southbound,FALSE,Bk,40.69218
288,rv-zkwz-97zu_nrz9,2024-08-22T18:09:47.728Z,Queens,Crosstown,G,288,IND,0,G32,Subway,,Myrtle-Willoughby Avs,-73.949046,0,2024-08-22T18:09:53.410Z,0,row-amvm_ijby-h9y8,Southbound,FALSE,Bk,40.694568
301,rv-x2qq-2puw.q974,2024-08-22T18:09:47.728Z,The Bronx,Broadway - 7Av,1,301,IRT,0,111,Subway,,181 St,-73.933596,0,2024-08-22T18:09:53.410Z,0,row-k9i6~8iug.zxgt,Downtown,FALSE,M,40.849505
320,rv-b2gm-qhmk.ifb3,2024-08-22T18:09:47.728Z,Uptown,Broadway - 7Av,1,320,IRT,0,130,Subway,,23 St,-73.995657,0,2024-08-22T18:09:53.410Z,0,row-fw38-ahc8-nrgr,Downtown,TRUE,M,40.744081
436,rv-6rgd.wadw_uzwn,2024-08-22T18:09:47.728Z,Last Stop,Lenox - White Plains Rd,3,436,IRT,0,301,Subway,,Harlem-148 St,-73.93647,0,2024-08-22T18:09:53.410Z,0,row-p6k6~rejz_54s9,Downtown,FALSE,M,40.82388
38,rv-bv99_htw3_bewt,2024-08-22T18:09:47.728Z,Manhattan,4th Av,R,38,BMT,1,R44,Subway,,86 St,-74.028398,1,2024-08-22T18:09:53.410Z,1,row-a4hk.mnd4~3q2e,Bay Ridge,FALSE,Bk,40.622687
26,rv-rm69-2uv4-zdk5,2024-08-22T18:09:47.728Z,Manhattan,Broadway - Brighton,B Q R,26,BMT,1,R30,Subway,,DeKalb Av,-73.981824,1,2024-08-22T18:09:53.410Z,1,row-8fta~9hfy.gpdg,Southbound,FALSE,Bk,40.690635
257,rv-yupg~nvx4.prvc,2024-08-22T18:09:47.728Z,Jamaica,Queens Blvd,F,257,IND,0,F04,Subway,,Sutphin Blvd,-73.810708,0,2024-08-22T18:09:53.410Z,0,row-ux36~f2je-qk4h,Manhattan,FALSE,Q,40.70546
389,rv-8ynw-3b6v.z3a4,2024-08-22T18:09:47.728Z,Northbound,Jerome Av,4,604,IRT,1,414,Elevated,,161 St-Yankee Stadium,-73.925831,1,2024-08-22T18:09:53.410Z,1,row-cd3s_2pg4_2b6j,Manhattan,FALSE,Bx,40.827994
53,rv-2b8e-jz5e.y7gf,2024-08-22T18:09:47.728Z,Manhattan,Broadway - Brighton,Q,53,BMT,0,D38,Open Cut,,Neck Rd,-73.955161,0,2024-08-22T18:09:53.410Z,0,row-6st3_a6vc~8pru,Southbound,FALSE,Bk,40.595246
15,rv-7iu5_x9pr.u4un,2024-08-22T18:09:47.728Z,Uptown,Broadway - Brighton,N Q R W,602,BMT,1,R20,Subway,,14 St-Union Sq,-73.990568,1,2024-08-22T18:09:53.410Z,1,row-xsev~3eaq.g6fy,Downtown,TRUE,M,40.735736
184,rv-yg5z~e33n.cjmt,2024-08-22T18:09:47.728Z,Manhattan,8th Av - Fulton St,A C,621,IND,0,A51,Subway,,Broadway Junction,-73.905316,0,2024-08-22T18:09:53.410Z,0,row-if64_js8p~jbq6,Outbound,FALSE,Bk,40.678334
372,rv-qkpx.vqjd~uqm3,2024-08-22T18:09:47.728Z,Northbound,Pelham,6,372,IRT,0,614,Subway,,Longwood Av,-73.896435,0,2024-08-22T18:09:53.410Z,0,row-xdve-u9a7_nhrd,Manhattan,FALSE,Bx,40.816104
111,rv-bm4d.giyw~yucg,2024-08-22T18:09:47.728Z,Inbound,Myrtle Av,M,111,BMT,0,M06,Elevated,,Seneca Av,-73.90774,0,2024-08-22T18:09:53.410Z,0,row-pykd.6dzu_z87m,Middle Village,FALSE,Q,40.702762
126,rv-98b9-j9ez-vzha,2024-08-22T18:09:47.728Z,Manhattan,Canarsie,L,126,BMT,0,L15,Subway,,Jefferson St,-73.922913,0,2024-08-22T18:09:53.410Z,0,row-g4m2-xdam-u25h,Outbound,FALSE,Bk,40.706607
344,rv-pmks_mme4-2sx7,2024-08-22T18:09:47.728Z,Manhattan,Eastern Pky,3,344,IRT,0,249,Subway,,Kingston Av,-73.942161,0,2024-08-22T18:09:53.410Z,0,row-h2jf.283w~x5hx,Outbound,FALSE,Bk,40.669399
357,rv-p6e6~9vpp~vvk2,2024-08-22T18:09:47.728Z,Manhattan,Nostrand,2 5,357,IRT,0,245,Subway,,Beverly Rd,-73.948959,0,2024-08-22T18:09:53.410Z,0,row-v8gt~w6su.kwgz,Flatbush,FALSE,Bk,40.645098
196,rv-dr8h~kha7_d3gp,2024-08-22T18:09:47.728Z,Manhattan,Rockaway,A,196,IND,1,H01,At Grade,,Aqueduct Racetrack,-73.835254,1,2024-08-22T18:09:53.410Z,1,row-sfy9-abh9~phg7,Rockaways,FALSE,Q,40.672369
460,rv-k7wq_g87z_w8zh,2024-08-22T18:09:47.728Z,Outbound,Flushing,7,460,IRT,0,716,Elevated,,33 St-Rawson St,-73.930997,0,2024-08-22T18:09:53.410Z,0,row-8g6z~2w6k-g5g6,Manhattan,FALSE,Q,40.744587
158,rv-jwgd_5pa8.juqd,2024-08-22T18:09:47.728Z,Uptown,8th Av - Fulton St,C B,158,IND,0,A20,Subway,,86 St,-73.968916,0,2024-08-22T18:09:53.410Z,0,row-zvnm-gxa9~9tfm,Downtown,FALSE,M,40.785868
189,rv-mvfb_g8qe.6n8d,2024-08-22T18:09:47.728Z,Manhattan,Liberty Av,A,189,IND,0,A57,Subway,,Grant Av,-73.86505,0,2024-08-22T18:09:53.410Z,0,row-6xde~4rb4.xsq3,Queens,FALSE,Bk,40.677044
21,rv-nmpq-9qg4.6u4p,2024-08-22T18:09:47.728Z,Uptown,Broadway,R W,624,BMT,1,R25,Subway,,Cortlandt St,-74.011029,1,2024-08-22T18:09:53.410Z,1,row-nj4v~5546~q9r5,Downtown,TRUE,M,40.710668
421,rv-b83e-x224~8anu,2024-08-22T18:09:47.728Z,Northbound,Lenox - White Plains Rd,2 5,421,IRT,1,208,Elevated,,Gun Hill Rd,-73.866256,1,2024-08-22T18:09:53.410Z,1,row-np3b-ay9w.dbxh,Manhattan,FALSE,Bx,40.87785
47,rv-m4hn.yzxe~bbig,2024-08-22T18:09:47.728Z,Manhattan,Broadway - Brighton,B Q,47,BMT,0,D31,Open Cut,,Newkirk Plaza,-73.962793,0,2024-08-22T18:09:53.410Z,0,row-iv9e_38wz-axpu,Southbound,FALSE,Bk,40.635082
94,rv-pr4t-s77j.r782,2024-08-22T18:09:47.728Z,Outbound,Jamaica,J,94,BMT,0,J29,Elevated,,Halsey St,-73.916559,0,2024-08-22T18:09:53.410Z,0,row-5w66~v4nh~rhap,Manhattan,FALSE,Bk,40.68637
284,rv-bawg~cra5_csc7,2024-08-22T18:09:47.728Z,Queens,Crosstown,G,284,IND,0,G28,Subway,,Nassau Av,-73.951277,0,2024-08-22T18:09:53.410Z,0,row-9nzg.mfa9_7qup,Southbound,FALSE,Bk,40.724635
416,rv-5wk9~n88f~tbac,2024-08-22T18:09:47.728Z,Last Stop,Lenox - White Plains Rd,2,416,IRT,0,201,Elevated,,Wakefield-241 St,-73.85062,0,2024-08-22T18:09:53.410Z,0,row-9itj~8zd7~tsd7,Manhattan,FALSE,Bx,40.903125
325,rv-5d6i-nty6-rng2,2024-08-22T18:09:47.728Z,Uptown,Broadway - 7Av,1,325,IRT,0,135,Subway,,Canal St,-74.006277,0,2024-08-22T18:09:53.410Z,0,row-ryye~6z93.ym4i,Downtown,TRUE,M,40.722854
153,rv-vngu~xhp6.xy3a,2024-08-22T18:09:47.728Z,Uptown,8th Av - Fulton St,A C B D,153,IND,1,A15,Subway,,125 St,-73.952343,1,2024-08-22T18:09:53.410Z,1,row-7b8f.grtw-tf5v,Downtown,FALSE,M,40.811109
228,rv-pyez~w7ng-82wc,2024-08-22T18:09:47.728Z,Uptown,6th Av - Culver,F M,228,IND,0,D18,Subway,,23 St,-73.992821,0,2024-08-22T18:09:53.410Z,0,row-t8tn.esjm-9eiy,Downtown,TRUE,M,40.742878
289,rv-53fw-mkpd.5ywn,2024-08-22T18:09:47.728Z,Queens,Crosstown,G,289,IND,0,G33,Subway,,Bedford-Nostrand Avs,-73.953522,0,2024-08-22T18:09:53.410Z,0,row-dn2p.t9gj-i3gn,Southbound,FALSE,Bk,40.689627
448,rv-nwfj.rxg8~jbq2,2024-08-22T18:09:47.728Z,Outbound,Flushing,7,448,IRT,0,702,Elevated,,Mets-Willets Point,-73.845625,0,2024-08-22T18:09:53.410Z,0,row-uwmv_hqyy.6ubq,Manhattan,FALSE,Q,40.754622
58,rv-xcey-v98x-kczh,2024-08-22T18:09:47.728Z,Manhattan,Sea Beach / West End / Culver / Brighton,D F N Q,58,BMT,1,D43,Viaduct,,Coney Island-Stillwell Av,-73.981233,1,2024-08-22T18:09:53.410Z,1,row-hd7b~aw7t_tiex,Last Stop,FALSE,Bk,40.577422
316,rv-eq9e.wgxe-a5mg,2024-08-22T18:09:47.728Z,Uptown,Broadway - 7Av,1,316,IRT,0,126,Subway,,50 St,-73.983849,0,2024-08-22T18:09:53.410Z,0,row-8e3u_988m~qsdh,Downtown,TRUE,M,40.761728
79,rv-gcm8~yk87-jnzw,2024-08-22T18:09:47.728Z,Manhattan,Sea Beach,N,79,BMT,0,N10,Open Cut,,86 St,-73.97823,0,2024-08-22T18:09:53.410Z,0,row-et5p_m84j~emj9,Coney Island,FALSE,Bk,40.592721
261,rv-bsun_3xnu-h7rv,2024-08-22T18:09:47.728Z,Outbound,Queens Blvd,E F M R,261,IND,1,G08,Subway,,Forest Hills-71 Av,-73.844521,1,2024-08-22T18:09:53.410Z,1,row-5vnp.nt2e.kxs3,Manhattan,FALSE,Q,40.721691
30,rv-kbq4-euwz.9dy2,2024-08-22T18:09:47.728Z,Manhattan,4th Av,R,30,BMT,0,R34,Subway,,Prospect Av,-73.992872,0,2024-08-22T18:09:53.410Z,0,row-a2di_wz2s_c8a3,Southbound,FALSE,Bk,40.665414
216,rv-rig7-gwi6_usfx,2024-08-22T18:09:47.728Z,Northbound,Concourse,B D,216,IND,0,D08,Subway,,174-175 Sts,-73.910136,0,2024-08-22T18:09:53.410Z,0,row-hv4c.s3nc.5a26,Manhattan,FALSE,Bx,40.8459
165,rv-egyu.dx3q.gbeu,2024-08-22T18:09:47.728Z,Uptown,8th Av - Fulton St,C E,165,IND,0,A30,Subway,,23 St,-73.998041,0,2024-08-22T18:09:53.410Z,0,row-rk9q~4knb-8nmi,Downtown,TRUE,M,40.745906
179,rv-wmkm~kj43_tq3r,2024-08-22T18:09:47.728Z,Manhattan,8th Av - Fulton St,A C,179,IND,0,A46,Subway,,Nostrand Av,-73.950426,0,2024-08-22T18:09:53.410Z,0,row-658a~e6tb-trsj,Outbound,FALSE,Bk,40.680438
443,rv-j28p-sy9f~e5dk,2024-08-22T18:09:47.728Z,Eastchester,Dyre Av,5,443,IRT,0,502,Open Cut,,Baychester Av,-73.838591,0,2024-08-22T18:09:53.410Z,0,row-3eq9-9wu9_7eug,Manhattan,FALSE,Bx,40.878663
321,rv-3b8g.6hja.ni64,2024-08-22T18:09:47.728Z,Uptown,Broadway - 7Av,1,321,IRT,0,131,Subway,,18 St,-73.997871,0,2024-08-22T18:09:53.410Z,0,row-tgbv_z5mr.puwx,Downtown,TRUE,M,40.74104
376,rv-4dnz~wbjx~2gpr,2024-08-22T18:09:47.728Z,Northbound,Pelham,6,376,IRT,0,618,Subway,,Brook Av,-73.91924,0,2024-08-22T18:09:53.410Z,0,row-wq6z~c689.fkhy,Manhattan,FALSE,Bx,40.807566
211,rv-8q4t-9h5m~uu4s,2024-08-22T18:09:47.728Z,Northbound,Concourse,B D,211,IND,1,D03,Subway,,Bedford Park Blvd,-73.887138,1,2024-08-22T18:09:53.410Z,1,row-ueu9_7yfg-qdbd,Manhattan,FALSE,Bx,40.873244
253,rv-ftgk_79ab.w639,2024-08-22T18:09:47.728Z,Manhattan,6th Av - Culver,F,253,IND,0,F39,Elevated,,Neptune Av,-73.974574,0,2024-08-22T18:09:53.410Z,0,row-he5u_hxj4-cp62,Coney Island,FALSE,Bk,40.581011
107,rv-efsn_excd_r2uk,2024-08-22T18:09:47.728Z,Brooklyn,Jamaica,J Z,107,BMT,0,M23,Subway,,Broad St,-74.011056,0,2024-08-22T18:09:53.410Z,0,row-jzia~fidj-fgbi,Last Stop,TRUE,M,40.706476
238,rv-43if_aes7.wg46,2024-08-22T18:09:47.728Z,Northbound,6th Av - Culver,F G,238,IND,0,F22,Viaduct,,Smith-9 Sts,-73.995959,0,2024-08-22T18:09:53.410Z,0,row-t9ud.7bw7.2tkm,Southbound,FALSE,Bk,40.67358
122,rv-nr8u~h46h.vmw4,2024-08-22T18:09:47.728Z,Manhattan,Canarsie,L,122,BMT,0,L11,Subway,,Graham Av,-73.944053,0,2024-08-22T18:09:53.410Z,0,row-iux3_pmib~dhic,Outbound,FALSE,Bk,40.714565
348,rv-p835-5t87-3dbz,2024-08-22T18:09:47.728Z,Manhattan,Eastern Pky,3,348,IRT,0,253,Elevated,,Rockaway Av,-73.908946,0,2024-08-22T18:09:53.410Z,0,row-ckq7.8djq~c2pi,New Lots,FALSE,Bk,40.662549
85,rv-ngm7.5u6q_x7gt,2024-08-22T18:09:47.728Z,Jamaica,Jamaica,J Z,85,BMT,0,J17,Elevated,,75 St-Elderts Ln,-73.867139,0,2024-08-22T18:09:53.410Z,0,row-njbw.49v6~vkzi,Manhattan,FALSE,Q,40.691324
353,rv-z3ap~8npd~avp7,2024-08-22T18:09:47.728Z,Manhattan,Nostrand,2 5,353,IRT,0,241,Subway,,President St-Medgar Evers College,-73.950683,0,2024-08-22T18:09:53.410Z,0,row-g8dr.qgny~hgj2,Flatbush,FALSE,Bk,40.667883
149,rv-usz9-j4ge~nrh8,2024-08-22T18:09:47.728Z,Uptown,8th Av - Fulton St,C,149,IND,0,A10,Subway,,163 St-Amsterdam Av,-73.939892,0,2024-08-22T18:09:53.410Z,0,row-cwqb_mf4c-kw7b,Downtown,FALSE,M,40.836013
397,rv-axfp~umek~szge,2024-08-22T18:09:47.728Z,Uptown,Lexington Av,4 5 6,397,IRT,0,626,Subway,Uptown local only,86 St,-73.955589,1,2024-08-22T18:09:53.410Z,2,row-ueft~u98z_i2nv,Downtown,FALSE,M,40.779492
280,rv-juaa_kujv-p6gt,2024-08-22T18:09:47.728Z,Jamaica,Queens - Archer,E,280,IND,1,G07,Subway,,Jamaica-Van Wyck,-73.816859,1,2024-08-22T18:09:53.410Z,1,row-7bu6.rxy2_huc2,Manhattan,FALSE,Q,40.702566
62,rv-jtu8.b2rq-ett8,2024-08-22T18:09:47.728Z,Manhattan,West End,D,62,BMT,0,B15,Elevated,,55 St,-73.995476,0,2024-08-22T18:09:53.410Z,0,row-ucga.54zu.nu3q,Southbound,FALSE,Bk,40.631435
221,rv-2qzf_zxii_nsbe,2024-08-22T18:09:47.728Z,Outbound,63rd St,F,221,IND,1,B04,Subway,,21 St-Queensbridge,-73.942836,1,2024-08-22T18:09:53.410Z,1,row-ghuq_u7u8~3f6f,Manhattan,FALSE,Q,40.754203
293,rv-afrv~bt5t~z9fd,2024-08-22T18:09:47.728Z,Last Stop,Broadway - 7Av,1,293,IRT,0,101,Elevated,,Van Cortlandt Park-242 St,-73.898583,0,2024-08-22T18:09:53.410Z,0,row-ywuf_sj73.gby6,Manhattan,FALSE,Bx,40.889248
453,rv-fr6g.4ac4_d94j,2024-08-22T18:09:47.728Z,Outbound,Flushing,7,453,IRT,0,709,Elevated,,82 St-Jackson Hts,-73.883697,0,2024-08-22T18:09:53.410Z,0,row-nmaq~sxwz.97uz,Manhattan,FALSE,Q,40.747659
133,rv-8tbb-6zwv~tuhn,2024-08-22T18:09:47.728Z,Manhattan,Canarsie,L,133,BMT,0,L24,Elevated,,Atlantic Av,-73.903097,0,2024-08-22T18:09:53.410Z,0,row-bkt7_cn6g.uygz,Canarsie,FALSE,Bk,40.675345
396,rv-78cw.iiyb-kn28,2024-08-22T18:09:47.728Z,The Bronx,Lexington Av,6,396,IRT,0,625,Subway,,96 St,-73.95107,0,2024-08-22T18:09:53.410Z,0,row-wadr~3bxh_d8pz,Downtown,FALSE,M,40.785672
90,rv-yszs_w5b7~h224,2024-08-22T18:09:47.728Z,Outbound,Jamaica,J Z,90,BMT,0,J23,Elevated,,Van Siclen Av,-73.891688,0,2024-08-22T18:09:53.410Z,0,row-btz7~yuc6~q7z8,Manhattan,FALSE,Bk,40.678024
134,rv-qe3i_ceni~64an,2024-08-22T18:09:47.728Z,Manhattan,Canarsie,L,134,BMT,0,L25,Elevated,,Sutter Av,-73.901975,0,2024-08-22T18:09:53.410Z,0,row-7rrs.m2ba~u3k6,Canarsie,FALSE,Bk,40.669367
411,rv-38vy_ms7m~tduz,2024-08-22T18:09:47.728Z,Uptown,Lexington Av,4 5 6,622,IRT,1,640,Subway,,Brooklyn Bridge-City Hall,-74.004131,1,2024-08-22T18:09:53.410Z,1,row-wtdm~aakb.w4rs,Downtown,TRUE,M,40.713065
117,rv-qcr6-7anc~v6i6,2024-08-22T18:09:47.728Z,West Side,Canarsie,L,602,BMT,1,L03,Subway,,14 St-Union Sq,-73.99073,1,2024-08-22T18:09:53.410Z,1,row-bvmc~bmah~3jke,Brooklyn,TRUE,M,40.734789
243,rv-at67_7pc8-yggv,2024-08-22T18:09:47.728Z,Northbound,6th Av - Culver,F G,243,IND,1,F27,Subway,,Church Av,-73.979678,1,2024-08-22T18:09:53.410Z,1,row-ei94~qgmr~p58n,Southbound,FALSE,Bk,40.644041
428,rv-nqc3.unxi.p6a2,2024-08-22T18:09:47.728Z,Northbound,Lenox - White Plains Rd,2 5,428,IRT,0,215,Elevated,,174 St,-73.887734,0,2024-08-22T18:09:53.410Z,0,row-ntj9.cw27.hwnp,Manhattan,FALSE,Bx,40.837288
2,rv-f58e-6uvp-kg4i,2024-08-22T18:09:47.728Z,Astoria,Astoria,N W,2,BMT,1,R03,Elevated,,Astoria Blvd,-73.917843,1,2024-08-22T18:09:53.410Z,1,row-nkht~itb2.z4q7,Manhattan,FALSE,Q,40.770258
265,rv-9g3s-qfx7.5gsk,2024-08-22T18:09:47.728Z,Outbound,Queens Blvd,M R,265,IND,0,G12,Subway,,Grand Av-Newtown,-73.877223,0,2024-08-22T18:09:53.410Z,0,row-3squ-arf5.fjt3,Manhattan,FALSE,Q,40.737015
312,rv-kh96-5f5t-y4bd,2024-08-22T18:09:47.728Z,Uptown,Broadway - 7Av,1,312,IRT,0,122,Subway,,79 St,-73.979917,0,2024-08-22T18:09:53.410Z,0,row-mtyv~qzrg~7acr,Downtown,FALSE,M,40.783934
75,rv-umqj_dpzk.6n5k,2024-08-22T18:09:47.728Z,Manhattan,Sea Beach,N,75,BMT,0,N06,Open Cut,,20 Av,-73.985026,0,2024-08-22T18:09:53.410Z,0,row-8t2a_7nxz_g4tu,Coney Island,FALSE,Bk,40.61741
206,rv-3p3t_69bt_m439,2024-08-22T18:09:47.728Z,Manhattan,Rockaway,A,206,IND,0,H08,Viaduct,,Beach 44 St,-73.776013,0,2024-08-22T18:09:53.410Z,0,row-6r95_43h6_2zes,Far Rockaway,FALSE,Q,40.592943
307,rv-mtxf_ub8f-k4pf,2024-08-22T18:09:47.728Z,Uptown,Broadway - 7Av,1,307,IRT,0,117,Subway,,116 St-Columbia University,-73.96411,0,2024-08-22T18:09:53.410Z,0,row-6dvx-m4nr_6zq2,Downtown,FALSE,M,40.807722
292,rv-vw63~nz54.bx5h,2024-08-22T18:09:47.728Z,Queens,Crosstown,G,292,IND,0,G36,Subway,,Fulton St,-73.975375,0,2024-08-22T18:09:53.410Z,0,row-dz5d_57kw_8i9d,Southbound,FALSE,Bk,40.687119
233,rv-tbxq.sx3t~afsf,2024-08-22T18:09:47.728Z,Uptown,6th Av - Culver,F,625,IND,0,F15,Subway,,Delancey St-Essex St,-73.988114,0,2024-08-22T18:09:53.410Z,0,row-7b7z.q8xm-sdm4,Brooklyn,TRUE,M,40.718611
452,rv-qauh_9tr9~q67b,2024-08-22T18:09:47.728Z,Outbound,Flushing,7,452,IRT,0,708,Elevated,,90 St-Elmhurst Av,-73.876613,0,2024-08-22T18:09:53.410Z,0,row-zi4y.92z5.2m5t,Manhattan,FALSE,Q,40.748408
7,rv-he3f_3tv5_han2,2024-08-22T18:09:47.728Z,Queens,Astoria,N R W,613,BMT,0,R11,Subway,,Lexington Av/59 St,-73.967258,0,2024-08-22T18:09:53.410Z,0,row-5nu3~zsmp_u6kc,Downtown,TRUE,M,40.76266
248,rv-mp3g-2z5v~xhsi,2024-08-22T18:09:47.728Z,Manhattan,6th Av - Culver,F,248,IND,0,F33,Elevated,,Avenue N,-73.974197,0,2024-08-22T18:09:53.410Z,0,row-uzti-dmc4.rust,Southbound,FALSE,Bk,40.61514
61,rv-s27u.tiwu_4fbe,2024-08-22T18:09:47.728Z,Manhattan,West End,D,61,BMT,0,B14,Elevated,,50 St,-73.994791,0,2024-08-22T18:09:53.410Z,0,row-nhdt~3jgi~rve7,Southbound,FALSE,Bk,40.63626
380,rv-rw5d~jrnx_nfjj,2024-08-22T18:09:47.728Z,Northbound,Jerome Av,4,380,IRT,0,405,Elevated,,Bedford Park Blvd-Lehman College,-73.890064,0,2024-08-22T18:09:53.410Z,0,row-ekbd~ah2f-zup4,Manhattan,FALSE,Bx,40.873412
118,rv-vzge.4zrd~9mis,2024-08-22T18:09:47.728Z,West Side,Canarsie,L,118,BMT,0,L05,Subway,,3 Av,-73.986122,0,2024-08-22T18:09:53.410Z,0,row-5yuu_7ckh.4deg,Brooklyn,TRUE,M,40.732849
439,rv-k5zz_ziw9.gywx,2024-08-22T18:09:47.728Z,Uptown,Lenox - White Plains Rd,2 3,439,IRT,0,225,Subway,,125 St,-73.945495,0,2024-08-22T18:09:53.410Z,0,row-t2ga~xgjh~urpr,Downtown,FALSE,M,40.807754
270,rv-6daf_wbfk.5vpg,2024-08-22T18:09:47.728Z,Outbound,Queens Blvd,M R,270,IND,0,G18,Subway,,46 St,-73.913333,0,2024-08-22T18:09:53.410Z,0,row-tdsy~v696-f9er,Manhattan,FALSE,Q,40.756312
86,rv-subp_atxv.uxbk,2024-08-22T18:09:47.728Z,Queens,Jamaica,J,86,BMT,0,J19,Elevated,,Cypress Hills,-73.87255,0,2024-08-22T18:09:53.410Z,0,row-sraq~k5ty-usyy,Manhattan,FALSE,Bk,40.689941
201,rv-yiff-bwkk_gjj4,2024-08-22T18:09:47.728Z,Inbound,Rockaway,A S,201,IND,0,H13,Viaduct,,Beach 98 St,-73.820558,0,2024-08-22T18:09:53.410Z,0,row-sg7z.k9y2.s4uy,Rockaway Park,FALSE,Q,40.585307
381,rv-p6dh~3zx3.ey36,2024-08-22T18:09:47.728Z,Northbound,Jerome Av,4,381,IRT,0,406,Elevated,,Kingsbridge Rd,-73.897174,0,2024-08-22T18:09:53.410Z,0,row-7dc6_hpwi.fg45,Manhattan,FALSE,Bx,40.86776
220,rv-egs6.s2fk.w8k8,2024-08-22T18:09:47.728Z,The Bronx,Concourse,B D,220,IND,0,D12,Subway,,155 St,-73.938209,0,2024-08-22T18:09:53.410Z,0,row-fcez~z7ci-i9gy,Downtown,FALSE,M,40.830135
366,rv-4wy7-93nw~qxj5,2024-08-22T18:09:47.728Z,Northbound,Pelham,6,366,IRT,0,608,Elevated,,Parkchester,-73.860816,0,2024-08-22T18:09:53.410Z,0,row-kjih~ntby.b4jb,Manhattan,FALSE,Bx,40.833226
103,rv-rj4i.33jb~86rn,2024-08-22T18:09:47.728Z,Brooklyn,Jamaica,J Z,103,BMT,0,M19,Subway,,Bowery,-73.993915,0,2024-08-22T18:09:53.410Z,0,row-2iqn.wew7~vnr4,Downtown,TRUE,M,40.72028
334,rv-sg8d_ij8z.56ab,2024-08-22T18:09:47.728Z,Manhattan,Clark St,2 3,334,IRT,0,231,Subway,,Clark St,-73.993086,0,2024-08-22T18:09:53.410Z,0,row-ev99.tacq.vchq,Outbound,FALSE,Bk,40.697466
302,rv-hmqb_fhxr~c3gu,2024-08-22T18:09:47.728Z,Uptown,Broadway - 7Av,1,605,IRT,0,112,Subway,,168 St-Washington Hts,-73.940133,0,2024-08-22T18:09:53.410Z,0,row-9ud4_m9pw.7h6s,Downtown,FALSE,M,40.840556
260,rv-55ym_nma9_jmrg,2024-08-22T18:09:47.728Z,Jamaica,Queens Blvd,E F,260,IND,0,F07,Subway,,75 Av,-73.837324,0,2024-08-22T18:09:53.410Z,0,row-88vi_xzte-k76c,Manhattan,FALSE,Q,40.718331
349,rv-dvys~n5bm.f6mi,2024-08-22T18:09:47.728Z,Manhattan,Eastern Pky,3,349,IRT,0,254,Elevated,,Junius St,-73.902447,0,2024-08-22T18:09:53.410Z,0,row-a53f.c8ys~z3gv,New Lots,FALSE,Bk,40.663515
29,rv-iizc~42g6-nqp9,2024-08-22T18:09:47.728Z,Manhattan,4th Av,R,608,BMT,0,R33,Subway,,4 Av-9 St,-73.988302,0,2024-08-22T18:09:53.410Z,0,row-kbwt-4pwm~vejk,Southbound,FALSE,Bk,40.670847
39,rv-gyen.2paq-gec7,2024-08-22T18:09:47.728Z,Manhattan,4th Av,R,39,BMT,0,R45,Subway,,Bay Ridge-95 St,-74.030876,0,2024-08-22T18:09:53.410Z,0,row-s8x3-vxqi.2qxq,Last Stop,FALSE,Bk,40.616622
161,rv-n9zh-a22c_9hw8,2024-08-22T18:09:47.728Z,Uptown,8th Av - Fulton St,A C B D,614,IND,1,A24,Subway,,59 St-Columbus Circle,-73.981736,1,2024-08-22T18:09:53.410Z,1,row-azxv.gaxw_2t77,Downtown,TRUE,M,40.768296
392,rv-fb53~57d7_vzen,2024-08-22T18:09:47.728Z,The Bronx,Lexington Av,4 5 6,392,IRT,1,621,Subway,,125 St,-73.937594,1,2024-08-22T18:09:53.410Z,1,row-7dke.jtb8-uns7,Downtown,FALSE,M,40.804138
297,rv-wgsq.8z3w-hx3c,2024-08-22T18:09:47.728Z,The Bronx,Broadway - 7Av,1,297,IRT,0,107,Elevated,,215 St,-73.915279,0,2024-08-22T18:09:53.410Z,0,row-g2kp_wbqr_ti75,Downtown,FALSE,M,40.869444
71,rv-wqye.sau8~bpr2,2024-08-22T18:09:47.728Z,Manhattan,Sea Beach,N,71,BMT,1,N02,Open Cut,,8 Av,-74.011719,1,2024-08-22T18:09:53.410Z,1,row-9f8q.5ywh-jm8e,Coney Island,FALSE,Bk,40.635064
424,rv-qne3_x4vq.eh5q,2024-08-22T18:09:47.728Z,Northbound,Lenox - White Plains Rd,2 5,424,IRT,1,211,Elevated,,Pelham Pkwy,-73.867615,1,2024-08-22T18:09:53.410Z,1,row-freq.fsxn_ctaw,Manhattan,FALSE,Bx,40.857192
192,rv-yep4~n34v~q387,2024-08-22T18:09:47.728Z,Manhattan,Liberty Av,A,192,IND,0,A61,Elevated,,Rockaway Blvd,-73.843853,0,2024-08-22T18:09:53.410Z,0,row-37kj~ugd7-gwk6,Outbound,FALSE,Q,40.680429
407,rv-4aa3-eh7v.e29q,2024-08-22T18:09:47.728Z,Uptown,Lexington Av,6,407,IRT,0,636,Subway,,Astor Pl,-73.99107,0,2024-08-22T18:09:53.410Z,0,row-unsx~u9it~zfku,Downtown,TRUE,M,40.730054
429,rv-ah9i.c9yp.cudj,2024-08-22T18:09:47.728Z,Northbound,Lenox - White Plains Rd,2 5,429,IRT,0,216,Elevated,,Freeman St,-73.891865,0,2024-08-22T18:09:53.410Z,0,row-heuu-7des.rymt,Manhattan,FALSE,Bx,40.829993
275,rv-erbn~egvg_jvj2,2024-08-22T18:09:47.728Z,Queens,Queens Blvd,E M,612,IND,1,F11,Subway,,Lexington Av/53 St,-73.969055,1,2024-08-22T18:09:53.410Z,1,row-kk6n.6aat_b9fv,Downtown,TRUE,M,40.757552
22,rv-cj7h~ptn9~bcg4,2024-08-22T18:09:47.728Z,Uptown,Broadway,R W,22,BMT,0,R26,Subway,,Rector St,-74.013342,0,2024-08-22T18:09:53.410Z,0,row-ce2y-it2a_6hwe,Downtown,TRUE,M,40.70722
138,rv-xbj5~rgzf_vguw,2024-08-22T18:09:47.728Z,Manhattan,Canarsie,L,138,BMT,1,L29,At Grade,,Canarsie-Rockaway Pkwy,-73.90185,1,2024-08-22T18:09:53.410Z,1,row-ewss-s3y9_esmw,Last Stop,FALSE,Bk,40.646654
166,rv-sf7i.tfvs.v8mp,2024-08-22T18:09:47.728Z,Uptown,8th Av - Fulton St,A C E,618,IND,1,A31,Subway,,14 St,-74.00169,1,2024-08-22T18:09:53.410Z,1,row-wvea.5ixn_a4se,Downtown,TRUE,M,40.740893
34,rv-ihjj.pmqy-9iwm,2024-08-22T18:09:47.728Z,Manhattan,4th Av,R,34,BMT,0,R40,Subway,,53 St,-74.014034,0,2024-08-22T18:09:53.410Z,0,row-sayt.mz7s_i294,Southbound,FALSE,Bk,40.645069
93,rv-3j7s_nsqk~5tb5,2024-08-22T18:09:47.728Z,Outbound,Jamaica,J Z,93,BMT,0,J28,Elevated,,Chauncey St,-73.910456,0,2024-08-22T18:09:53.410Z,0,row-h2qv~r7mz_wpm3,Manhattan,FALSE,Bk,40.682893
466,rv-gj3d.gw7r-sbn2,2024-08-22T18:09:47.728Z,Queens,Flushing,7,609,IRT,0,724,Subway,,5 Av,-73.981963,0,2024-08-22T18:09:53.410Z,0,row-ng4b.krcv~vgnm,Hudson Yards,TRUE,M,40.753821
229,rv-g2tn_638m_yp6w,2024-08-22T18:09:47.728Z,Uptown,6th Av - Culver,F M,601,IND,0,D19,Subway,Uptown only,14 St,-73.996209,1,2024-08-22T18:09:53.410Z,2,row-sc2x~nhss-y5dv,Downtown,TRUE,M,40.738228
252,rv-i2xb~vzar~39du,2024-08-22T18:09:47.728Z,Manhattan,6th Av - Culver,F,252,IND,0,F38,Elevated,,Avenue X,-73.97425,0,2024-08-22T18:09:53.410Z,0,row-ckvw-w9u8-pt73,Coney Island,FALSE,Bk,40.58962
197,rv-v667-vwji_r2jx,2024-08-22T18:09:47.728Z,Manhattan,Rockaway,A,197,IND,0,H02,At Grade,,Aqueduct-N Conduit Av,-73.834058,0,2024-08-22T18:09:53.410Z,0,row-g9xd-2pc7-acw9,Rockaways,FALSE,Q,40.668234
361,rv-mnmc~qerc~nsbr,2024-08-22T18:09:47.728Z,Pelham Bay,Pelham,6,361,IRT,0,602,Elevated,,Buhre Av,-73.832569,0,2024-08-22T18:09:53.410Z,0,row-pyjw.wsdt-m3f3,Manhattan,FALSE,Bx,40.84681
66,rv-q5z3_yjyi-sfwa,2024-08-22T18:09:47.728Z,Manhattan,West End,D,66,BMT,0,B19,Elevated,,18 Av,-74.001736,0,2024-08-22T18:09:53.410Z,0,row-ngse-m7nd_jteu,Southbound,FALSE,Bk,40.607954
435,rv-5xmx~v4yj_heck,2024-08-22T18:09:47.728Z,Northbound,Lenox - White Plains Rd,2 5,603,IRT,0,222,Subway,,149 St-Grand Concourse,-73.926718,0,2024-08-22T18:09:53.410Z,0,row-ys8g.743d-fzg6,Manhattan,FALSE,Bx,40.81841
98,rv-sqfa~wyek_su8y,2024-08-22T18:09:47.728Z,Outbound,Jamaica,M J,98,BMT,1,M12,Elevated,,Flushing Av,-73.941126,1,2024-08-22T18:09:53.410Z,1,row-ebg6_8uyq~rvp6,Manhattan,FALSE,Bk,40.70026
329,rv-6aea~kcp2~w3nd,2024-08-22T18:09:47.728Z,Uptown,Broadway - 7Av,1,329,IRT,0,139,Subway,,Rector St,-74.013783,0,2024-08-22T18:09:53.410Z,0,row-s7m9-i9qz_hgfn,Downtown,TRUE,M,40.707513
461,rv-jwtt.9j2z_psss,2024-08-22T18:09:47.728Z,Outbound,Flushing,7,461,IRT,0,718,Elevated,,Queensboro Plaza,-73.940202,0,2024-08-22T18:09:53.410Z,0,row-4c4v~im4b~2i44,Manhattan,FALSE,Q,40.750582
456,rv-6kg8-at8h_5w97,2024-08-22T18:09:47.728Z,Outbound,Flushing,7,456,IRT,1,712,Elevated,,61 St-Woodside,-73.902984,1,2024-08-22T18:09:53.410Z,1,row-ukft_xunr_ynsh,Manhattan,FALSE,Q,40.74563
324,rv-639x~hjwz-gqi3,2024-08-22T18:09:47.728Z,Uptown,Broadway - 7Av,1,324,IRT,0,134,Subway,,Houston St,-74.005367,0,2024-08-22T18:09:53.410Z,0,row-xrdw~qnqu.g74n,Downtown,TRUE,M,40.728251
285,rv-5539_57u8_qpfx,2024-08-22T18:09:47.728Z,Queens,Crosstown,G,629,IND,1,G29,Subway,,Metropolitan Av,-73.951418,1,2024-08-22T18:09:53.410Z,1,row-cs92.vq3n_ciyi,Southbound,FALSE,Bk,40.712792
224,rv-vchu.4vw8_d4aw,2024-08-22T18:09:47.728Z,Uptown,6th Av - Culver,F,224,IND,0,B10,Subway,,57 St,-73.97745,0,2024-08-22T18:09:53.410Z,0,row-vemh.cwr7_isbg,Downtown,TRUE,M,40.763972
317,rv-qumg-ikx5.5wpa,2024-08-22T18:09:47.728Z,Uptown,Broadway - 7Av,1 2 3,611,IRT,1,127,Subway,,Times Sq-42 St,-73.987495,1,2024-08-22T18:09:53.410Z,1,row-4v5s-rmb9~n5ix,Downtown,TRUE,M,40.75529
157,rv-ufca_euw5.kuey,2024-08-22T18:09:47.728Z,Uptown,8th Av - Fulton St,C B,157,IND,0,A19,Subway,,96 St,-73.964696,0,2024-08-22T18:09:53.410Z,0,row-bs96-u6sj.w3hd,Downtown,FALSE,M,40.791642
403,rv-rszn_4qsu_cysu,2024-08-22T18:09:47.728Z,Uptown,Lexington Av,6,403,IRT,0,632,Subway,,33 St,-73.982076,0,2024-08-22T18:09:53.410Z,0,row-bmcm~zng5.abdr,Downtown,TRUE,M,40.746081
10,rv-kfer.vj3i.tq8r,2024-08-22T18:09:47.728Z,Uptown,Broadway - Brighton,N R W,10,BMT,0,R15,Subway,Uptown only,49 St,-73.984139,1,2024-08-22T18:09:53.410Z,2,row-w8ra.5tsv-np3g,Downtown,TRUE,M,40.759901
188,rv-ib8a_azn8-2vjv,2024-08-22T18:09:47.728Z,Manhattan,8th Av - Fulton St,A C,188,IND,1,A55,Subway,,Euclid Av,-73.872106,1,2024-08-22T18:09:53.410Z,1,row-4tqc~ptn6~xcas,Queens,FALSE,Bk,40.675377
388,rv-c239.3ecg-hgjb,2024-08-22T18:09:47.728Z,Northbound,Jerome Av,4,388,IRT,0,413,Elevated,,167 St,-73.9214,0,2024-08-22T18:09:53.410Z,0,row-eg3u_dpvv_ntgd,Manhattan,FALSE,Bx,40.835537
54,rv-9qpc.bmhc.hgnn,2024-08-22T18:09:47.728Z,Manhattan,Broadway - Brighton,B Q,54,BMT,0,D39,Open Cut,,Sheepshead Bay,-73.954155,0,2024-08-22T18:09:53.410Z,0,row-s5q8_g68k~2gxj,Southbound,FALSE,Bk,40.586896
356,rv-pnua_qm32.ghny,2024-08-22T18:09:47.728Z,Manhattan,Nostrand,2 5,356,IRT,1,244,Subway,,Church Av,-73.949575,1,2024-08-22T18:09:53.410Z,1,row-7hdc~fsvf~gz2i,Flatbush,FALSE,Bk,40.650843
169,rv-nppk_e57n-brfy,2024-08-22T18:09:47.728Z,Uptown,8th Av - Fulton St,A C E,169,IND,0,A34,Subway,,Canal St,-74.005229,0,2024-08-22T18:09:53.410Z,0,row-qydi_468a-tgh7,Downtown,TRUE,M,40.720824
143,rv-pyzw-byz3_9tkv,2024-08-22T18:09:47.728Z,Last Stop,8th Av - Fulton St,A,143,IND,1,A02,Subway,,Inwood-207 St,-73.919899,1,2024-08-22T18:09:53.410Z,1,row-3xme-nfn5~ee27,Downtown,FALSE,M,40.868072
420,rv-vpai.ui3v.2zyq,2024-08-22T18:09:47.728Z,Northbound,Lenox - White Plains Rd,2 5,420,IRT,0,207,Elevated,,219 St,-73.862633,0,2024-08-22T18:09:53.410Z,0,row-uq7i-xtz2-ahkz,Manhattan,FALSE,Bx,40.883895
110,rv-9his.aq5a-rkyn,2024-08-22T18:09:47.728Z,Inbound,Myrtle Av,M,110,BMT,0,M05,Elevated,,Forest Av,-73.903077,0,2024-08-22T18:09:53.410Z,0,row-zhet.zcwv_wjm5,Middle Village,FALSE,Q,40.704423
328,rv-du8y.7icp_spzk,2024-08-22T18:09:47.728Z,Uptown,Broadway - 7Av,1,328,IRT,1,138,Subway,,WTC Cortlandt,-74.012188,1,2024-08-22T18:09:53.410Z,1,row-n3tc-xyyk_8nez,Downtown,TRUE,M,40.711835
471,rv-9q6z~2rtc~awj9,2024-08-22T18:09:47.728Z,Last Stop,Flushing,7,471,IRT,1,726,Subway,,34 St-Hudson Yards,-74.00191,1,2024-08-22T18:09:53.410Z,1,row-yz23~yd3w-duxr,Queens,TRUE,M,40.755882
256,rv-kdvn-kric_ntyt,2024-08-22T18:09:47.728Z,Jamaica,Queens Blvd,F,256,IND,0,F03,Subway,,Parsons Blvd,-73.803326,0,2024-08-22T18:09:53.410Z,0,row-2f6u.sts8~ut7y,Manhattan,FALSE,Q,40.707564
514,rv-jwhg.ii7z-bp8j,2024-08-22T18:09:47.728Z,Ferry,Staten Island,SIR,514,SIR,0,S18,Embankment,,Eltingville,-74.16457,0,2024-08-22T18:09:53.410Z,0,row-3y9t_stwt.wdnx,South Shore,FALSE,SI,40.544601
125,rv-es58-3ycu_t9xi,2024-08-22T18:09:47.728Z,Manhattan,Canarsie,L,125,BMT,0,L14,Subway,,Morgan Av,-73.933147,0,2024-08-22T18:09:53.410Z,0,row-8jgz-v7w8_ssgb,Outbound,FALSE,Bk,40.706152
225,rv-dws5~fzj8-9vbi,2024-08-22T18:09:47.728Z,Uptown,6th Av - Culver,B D F M,225,IND,1,D15,Subway,,47-50 Sts-Rockefeller Ctr,-73.981329,1,2024-08-22T18:09:53.410Z,1,row-97ap_c8vq~3xmk,Downtown,TRUE,M,40.758663
339,rv-cyet~xxtm.f9kv,2024-08-22T18:09:47.728Z,Manhattan,Eastern Pky,2 3,339,IRT,0,236,Subway,,Bergen St,-73.975098,0,2024-08-22T18:09:53.410Z,0,row-3zhh_pwee.mf35,Outbound,FALSE,Bk,40.680829
78,rv-65hq-bm7f-utut,2024-08-22T18:09:47.728Z,Manhattan,Sea Beach,N,78,BMT,0,N09,Open Cut,,Avenue U,-73.979137,0,2024-08-22T18:09:53.410Z,0,row-ctzt-apsi.8wng,Coney Island,FALSE,Bk,40.597473
193,rv-23q5.vfah-6jp2,2024-08-22T18:09:47.728Z,Manhattan,Liberty Av,A,193,IND,0,A63,Elevated,,104 St,-73.837683,0,2024-08-22T18:09:53.410Z,0,row-vd2g_kue7~5b5z,Ozone Park,FALSE,Q,40.681711
502,rv-rb2z_7k5w.kudq,2024-08-22T18:09:47.728Z,Ferry,Staten Island,SIR,502,SIR,0,S30,At Grade,,Tompkinsville,-74.074835,0,2024-08-22T18:09:53.410Z,0,row-tr6a_2s55~pndg,South Shore,FALSE,SI,40.636949
515,rv-sxwp~bqpr.h6v4,2024-08-22T18:09:47.728Z,Ferry,Staten Island,SIR,515,SIR,0,S17,Open Cut,,Annadale,-74.178217,0,2024-08-22T18:09:53.410Z,0,row-rxyt_kdyi~6ra7,South Shore,FALSE,SI,40.54046
212,rv-5aiz_wc7p~5tx7,2024-08-22T18:09:47.728Z,Northbound,Concourse,B D,212,IND,1,D04,Subway,,Kingsbridge Rd,-73.893509,1,2024-08-22T18:09:53.410Z,1,row-mhd4~2wu9.y7ie,Manhattan,FALSE,Bx,40.866978
97,rv-87y5_erv9~irc4,2024-08-22T18:09:47.728Z,Outbound,Jamaica,M J Z,97,BMT,0,M11,Elevated,,Myrtle Av,-73.935657,0,2024-08-22T18:09:53.410Z,0,row-9s4c~wb9m_a8wb,Manhattan,FALSE,Bk,40.697207
393,rv-xpyn-szt9_ybfn,2024-08-22T18:09:47.728Z,The Bronx,Lexington Av,6,393,IRT,0,622,Subway,,116 St,-73.941617,0,2024-08-22T18:09:53.410Z,0,row-j4h5-866b-udxy,Downtown,FALSE,M,40.798629
457,rv-h7vg-p2he~g2s2,2024-08-22T18:09:47.728Z,Outbound,Flushing,7,457,IRT,0,713,Elevated,,52 St,-73.912549,0,2024-08-22T18:09:53.410Z,0,row-tqmr.5cmd_fgqw,Manhattan,FALSE,Q,40.744149
173,rv-4esx-nrb6.qekx,2024-08-22T18:09:47.728Z,Manhattan,8th Av - Fulton St,A C,173,IND,0,A40,Subway,,High St,-73.990531,0,2024-08-22T18:09:53.410Z,0,row-zrnp~p6md~gkz6,Outbound,FALSE,Bk,40.699337
14,rv-dz9s~hf5v_rpid,2024-08-22T18:09:47.728Z,Uptown,Broadway - Brighton,R W,14,BMT,0,R19,Subway,,23 St,-73.989344,0,2024-08-22T18:09:53.410Z,0,row-8tas.btyp_2hr4,Downtown,TRUE,M,40.741303
130,rv-6k3x.4nie_a3pj,2024-08-22T18:09:47.728Z,Manhattan,Canarsie,L,130,BMT,0,L20,Subway,Manhattan-bound only,Wilson Av,-73.904046,1,2024-08-22T18:09:53.410Z,2,row-3d57_97zn~294h,Outbound,FALSE,Bk,40.688764
42,rv-vsid~r9jw.c7h2,2024-08-22T18:09:47.728Z,Northbound,Broadway - Brighton,B Q S,42,BMT,1,D26,Open Cut,,Prospect Park,-73.962246,1,2024-08-22T18:09:53.410Z,1,row-qap6_je3e.hwvk,Southbound,FALSE,Bk,40.661614
371,rv-idq8~jm3y_ynfg,2024-08-22T18:09:47.728Z,Northbound,Pelham,6,371,IRT,1,613,Subway,,Hunts Point Av,-73.890549,1,2024-08-22T18:09:53.410Z,1,row-c9f3-6taa-d5y9,Manhattan,FALSE,Bx,40.820948
135,rv-ckpy-7wa8.nwq4,2024-08-22T18:09:47.728Z,Manhattan,Canarsie,L,135,BMT,1,L26,Elevated,,Livonia Av,-73.900571,1,2024-08-22T18:09:53.410Z,1,row-93ka.kjqx.ft7f,Canarsie,FALSE,Bk,40.664038
74,rv-ehsq_nits-3kf7,2024-08-22T18:09:47.728Z,Manhattan,Sea Beach,N,74,BMT,0,N05,Open Cut,,18 Av,-73.990414,0,2024-08-22T18:09:53.410Z,0,row-mk4s~ar29.cnad,Coney Island,FALSE,Bk,40.620671
129,rv-u9jq~3hn4_7vif,2024-08-22T18:09:47.728Z,Manhattan,Canarsie,L,129,BMT,0,L19,Subway,,Halsey St,-73.904084,0,2024-08-22T18:09:53.410Z,0,row-p35e~k84t_cvan,Outbound,FALSE,Q,40.695602
343,rv-6ybi_z258~ne3e,2024-08-22T18:09:47.728Z,Manhattan,Eastern Pky,3,343,IRT,0,248,Subway,,Nostrand Av,-73.950466,0,2024-08-22T18:09:53.410Z,0,row-bbs4-9kmu~v4hy,Outbound,FALSE,Bk,40.669847
237,rv-8rmm-ru5s~nbem,2024-08-22T18:09:47.728Z,Northbound,6th Av - Culver,F G,237,IND,0,F21,Subway,,Carroll St,-73.995048,0,2024-08-22T18:09:53.410Z,0,row-ykfi_ivwv-pqtg,Southbound,FALSE,Bk,40.680303
106,rv-znm5-qir8_wjfy,2024-08-22T18:09:47.728Z,Brooklyn,Jamaica,J Z,628,BMT,1,M22,Subway,,Fulton St,-74.007582,1,2024-08-22T18:09:53.410Z,1,row-rpje~pzzw_tgp4,Downtown,TRUE,M,40.710374
244,rv-hyd7-hx5k-8dww,2024-08-22T18:09:47.728Z,Manhattan,6th Av - Culver,F,244,IND,0,F29,Elevated,,Ditmas Av,-73.978172,0,2024-08-22T18:09:53.410Z,0,row-saem.b5mf~yhqc,Southbound,FALSE,Bk,40.636119
3,rv-cgfd.hyvc-9tpd,2024-08-22T18:09:47.728Z,Astoria,Astoria,N W,3,BMT,0,R04,Elevated,,30 Av,-73.921479,0,2024-08-22T18:09:53.410Z,0,row-iea3.649c-efz7,Manhattan,FALSE,Q,40.766779
266,rv-ejei.xiyj~jz8m,2024-08-22T18:09:47.728Z,Outbound,Queens Blvd,M R,266,IND,0,G13,Subway,,Elmhurst Av,-73.882017,0,2024-08-22T18:09:53.410Z,0,row-74ms_inan_8kpe,Manhattan,FALSE,Q,40.742454
360,rv-dv5k~mjrp_2m2j,2024-08-22T18:09:47.728Z,Last Stop,Pelham,6,360,IRT,1,601,Elevated,,Pelham Bay Park,-73.828121,1,2024-08-22T18:09:53.410Z,1,row-xxd9-y7ev-edkd,Manhattan,FALSE,Bx,40.852462
205,rv-buqz-av9d-wvxp,2024-08-22T18:09:47.728Z,Manhattan,Rockaway,A,205,IND,0,H07,Viaduct,,Beach 60 St,-73.788522,0,2024-08-22T18:09:53.410Z,0,row-htpx-nevr.89pb,Far Rockaway,FALSE,Q,40.592374
311,rv-x9av~9eru~r8g7,2024-08-22T18:09:47.728Z,Uptown,Broadway - 7Av,1,311,IRT,0,121,Subway,,86 St,-73.976218,0,2024-08-22T18:09:53.410Z,0,row-2gmw_stzv-dtyr,Downtown,FALSE,M,40.788644
398,rv-sdva_y3yy_iw4m,2024-08-22T18:09:47.728Z,Uptown,Lexington Av,6,398,IRT,0,627,Subway,,77 St,-73.959874,0,2024-08-22T18:09:53.410Z,0,row-duuk.pdf4_pvhg,Downtown,FALSE,M,40.77362
298,rv-xq49.5ihh~tgk9,2024-08-22T18:09:47.728Z,The Bronx,Broadway - 7Av,1,298,IRT,0,108,Elevated,,207 St,-73.918822,0,2024-08-22T18:09:53.410Z,0,row-5gva~jzuu~3nu9,Downtown,FALSE,M,40.864621
412,rv-q4xy~j6ds~hv8i,2024-08-22T18:09:47.728Z,Uptown,Lexington Av,4 5,628,IRT,1,418,Subway,,Fulton St,-74.009509,1,2024-08-22T18:09:53.410Z,1,row-j4zm-62pb-n4kz,Downtown,TRUE,M,40.710368
425,rv-e2ff-ad2k-h5b4,2024-08-22T18:09:47.728Z,Northbound,Lenox - White Plains Rd,2 5,425,IRT,0,212,Elevated,,Bronx Park East,-73.868457,0,2024-08-22T18:09:53.410Z,0,row-dp89_7hyb-x7ik,Manhattan,FALSE,Bx,40.848828
430,rv-b53y.2rww_f48w,2024-08-22T18:09:47.728Z,Northbound,Lenox - White Plains Rd,2 5,430,IRT,1,217,Elevated,,Simpson St,-73.893064,1,2024-08-22T18:09:53.410Z,1,row-vhzu-29cd.93qb,Manhattan,FALSE,Bx,40.824073
167,rv-4cks.ngqj~aijp,2024-08-22T18:09:47.728Z,Uptown,8th Av - Fulton St,A C E,167,IND,1,A32,Subway,,W 4 St-Wash Sq,-74.000495,1,2024-08-22T18:09:53.410Z,1,row-xe9v_t47y.577b,Downtown,TRUE,M,40.732338
33,rv-9uv9~iwgy.6dgh,2024-08-22T18:09:47.728Z,Manhattan,4th Av,R,33,BMT,0,R39,Subway,,45 St,-74.010006,0,2024-08-22T18:09:53.410Z,0,row-8ikt~v6rj_du8i,Southbound,FALSE,Bk,40.648939
35,rv-v5dc~h4g5_nik4,2024-08-22T18:09:47.728Z,Manhattan,4th Av,N R,35,BMT,1,R41,Subway,,59 St,-74.017881,1,2024-08-22T18:09:53.410Z,1,row-2z98_qpsg-bue9,Southbound,FALSE,Bk,40.641362
150,rv-wdgg~af2r.scs7,2024-08-22T18:09:47.728Z,Uptown,8th Av - Fulton St,C,150,IND,0,A11,Subway,,155 St,-73.941514,0,2024-08-22T18:09:53.410Z,0,row-m5yk-v9wu~64iq,Downtown,FALSE,M,40.830518
264,rv-b74t.ei2i.ywyw,2024-08-22T18:09:47.728Z,Outbound,Queens Blvd,M R,264,IND,0,G11,Subway,,Woodhaven Blvd,-73.869229,0,2024-08-22T18:09:53.410Z,0,row-9agv_4cg3-hzst,Manhattan,FALSE,Q,40.733106
46,rv-adec~tzrh_uk22,2024-08-22T18:09:47.728Z,Manhattan,Broadway - Brighton,Q,46,BMT,0,D30,Open Cut,,Cortelyou Rd,-73.963891,0,2024-08-22T18:09:53.410Z,0,row-h798.8fzh_rqrh,Southbound,FALSE,Bk,40.640927
162,rv-jn46_t6uh-8t9c,2024-08-22T18:09:47.728Z,Uptown,8th Av - Fulton St,C E,162,IND,1,A25,Subway,Downtown only,50 St,-73.985984,0,2024-08-22T18:09:53.410Z,2,row-3jb3~dypr-u7d4,Downtown,TRUE,M,40.762456
279,rv-5j3g_bbh4.p2ri,2024-08-22T18:09:47.728Z,Jamaica,Queens - Archer,E J Z,279,IND,1,G06,Subway,,Sutphin Blvd-Archer Av-JFK Airport,-73.807969,1,2024-08-22T18:09:53.410Z,1,row-du73~xyum_gjpc,Manhattan,FALSE,Q,40.700486
65,rv-pemk.q7vf-hpix,2024-08-22T18:09:47.728Z,Manhattan,West End,D,65,BMT,0,B18,Elevated,,79 St,-74.00061,0,2024-08-22T18:09:53.410Z,0,row-39sa-5stn.rqdf,Southbound,FALSE,Bk,40.613501
180,rv-m8qc-evm6~2sqb,2024-08-22T18:09:47.728Z,Manhattan,8th Av - Fulton St,C,180,IND,0,A47,Subway,,Kingston-Throop Avs,-73.940858,0,2024-08-22T18:09:53.410Z,0,row-u8ht-quf6~uje4,Outbound,FALSE,Bk,40.679921
296,rv-s73r-c7wy.jf82,2024-08-22T18:09:47.728Z,The Bronx,Broadway - 7Av,1,296,IRT,0,106,Elevated,,Marble Hill-225 St,-73.909831,0,2024-08-22T18:09:53.410Z,0,row-m4ct-cq4p~ab2f,Downtown,FALSE,M,40.874561
18,rv-ruan~5agt~rmkw,2024-08-22T18:09:47.728Z,Uptown,Broadway,R W,623,BMT,0,R23,Subway,,Canal St,-74.001775,0,2024-08-22T18:09:53.410Z,0,row-nm4r_ujkq~3enq,Downtown,TRUE,M,40.719527
444,rv-f3y9~78eh.uc59,2024-08-22T18:09:47.728Z,Eastchester,Dyre Av,5,444,IRT,1,503,Open Cut,,Gun Hill Rd,-73.846384,1,2024-08-22T18:09:53.410Z,1,row-8k3g-6i2g_6hpx,Manhattan,FALSE,Bx,40.869526
151,rv-xv8c_7cf3.kudr,2024-08-22T18:09:47.728Z,Uptown,8th Av - Fulton St,A C,151,IND,0,A12,Subway,,145 St,-73.944216,0,2024-08-22T18:09:53.410Z,0,row-ucvv~kr46.ykqd,Downtown,FALSE,M,40.824783
375,rv-ynhj-qfkw.83cb,2024-08-22T18:09:47.728Z,Northbound,Pelham,6,375,IRT,0,617,Subway,,Cypress Av,-73.914042,0,2024-08-22T18:09:53.410Z,0,row-y5ib-ry3r-rtzf,Manhattan,FALSE,Bx,40.805368
176,rv-4grz.69ja.jkx5,2024-08-22T18:09:47.728Z,Manhattan,8th Av - Fulton St,C,176,IND,0,A43,Subway,,Lafayette Av,-73.973946,0,2024-08-22T18:09:53.410Z,0,row-n8vi~nt7b.iduy,Outbound,FALSE,Bk,40.686113
423,rv-nfhk-hn6s.jy5q,2024-08-22T18:09:47.728Z,Northbound,Lenox - White Plains Rd,2 5,423,IRT,0,210,Elevated,,Allerton Av,-73.867352,0,2024-08-22T18:09:53.410Z,0,row-79k2-knfk_zdek,Manhattan,FALSE,Bx,40.865462
191,rv-pjen-zqj8-3xj5,2024-08-22T18:09:47.728Z,Manhattan,Liberty Av,A,191,IND,0,A60,Elevated,,88 St,-73.85147,0,2024-08-22T18:09:53.410Z,0,row-uavg-rsmr_63zb,Outbound,FALSE,Q,40.679843
402,rv-99j8.f98e.uzbh,2024-08-22T18:09:47.728Z,Uptown,Lexington Av,4 5 6,610,IRT,1,631,Subway,,Grand Central-42 St,-73.976848,1,2024-08-22T18:09:53.410Z,1,row-q3bf~q5km~ndam,Downtown,TRUE,M,40.751776
23,rv-x99r_7zuf-wpm4,2024-08-22T18:09:47.728Z,Uptown,Broadway,R W,635,BMT,0,R27,Subway,,Whitehall St-South Ferry,-74.012994,0,2024-08-22T18:09:53.410Z,0,row-f6pw-wicb_8hbe,Downtown,TRUE,M,40.703087
45,rv-rkfn~6iaw~9auv,2024-08-22T18:09:47.728Z,Manhattan,Broadway - Brighton,Q,45,BMT,0,D29,Open Cut,,Beverley Rd,-73.964492,0,2024-08-22T18:09:53.410Z,0,row-cvwi.zcge.bde6,Southbound,FALSE,Bk,40.644031
286,rv-tuz7~wwrr.6c45,2024-08-22T18:09:47.728Z,Queens,Crosstown,G,286,IND,0,G30,Subway,,Broadway,-73.950308,0,2024-08-22T18:09:53.410Z,0,row-9md6_emdw-zntw,Southbound,FALSE,Bk,40.706092
291,rv-ps2q.6m6d_74ug,2024-08-22T18:09:47.728Z,Queens,Crosstown,G,291,IND,0,G35,Subway,,Clinton-Washington Avs,-73.966839,0,2024-08-22T18:09:53.410Z,0,row-6hk9_qzx6.rys2,Southbound,FALSE,Bk,40.688089
60,rv-49hi.a2xy.zeiz,2024-08-22T18:09:47.728Z,Manhattan,West End,D,60,BMT,0,B13,Elevated,,Fort Hamilton Pkwy,-73.994304,0,2024-08-22T18:09:53.410Z,0,row-ryjw_pr47~spbr,Southbound,FALSE,Bk,40.640914
119,rv-e3pa~ri6v~2w2y,2024-08-22T18:09:47.728Z,West Side,Canarsie,L,119,BMT,1,L06,Subway,,1 Av,-73.981628,1,2024-08-22T18:09:53.410Z,1,row-kp3t_wg2i~c88a,Brooklyn,TRUE,M,40.730953
281,rv-iegw-97yg_ihda,2024-08-22T18:09:47.728Z,Last Stop,Crosstown,G,606,IND,1,G22,Subway,,Court Sq,-73.943832,1,2024-08-22T18:09:53.410Z,1,row-aw29-if7y~ritc,Brooklyn,FALSE,Q,40.746554
204,rv-65yt-23wc_9j2f,2024-08-22T18:09:47.728Z,Manhattan,Rockaway,A,204,IND,1,H06,Viaduct,,Beach 67 St,-73.796924,1,2024-08-22T18:09:53.410Z,1,row-pen2~64id.iq6g,Far Rockaway,FALSE,Q,40.590927
259,rv-ixix.cyx7~pu3q,2024-08-22T18:09:47.728Z,Jamaica,Queens Blvd,E F,259,IND,1,F06,Subway,,Kew Gardens-Union Tpke,-73.831008,1,2024-08-22T18:09:53.410Z,1,row-j6t7~5jdc.ae75,Manhattan,FALSE,Q,40.714441
28,rv-krp6~d6dp_ssqj,2024-08-22T18:09:47.728Z,Manhattan,4th Av,R,28,BMT,0,R32,Subway,,Union St,-73.98311,0,2024-08-22T18:09:53.410Z,0,row-2e4u_9vpt~dah7,Southbound,FALSE,Bk,40.677316
413,rv-kpau.fsve~q7ut,2024-08-22T18:09:47.728Z,Uptown,Lexington Av,4 5,413,IRT,0,419,Subway,,Wall St,-74.011862,0,2024-08-22T18:09:53.410Z,0,row-pdb9~cjmd.wcj7,Downtown,TRUE,M,40.707557
72,rv-wwt4-bzy9_geyd,2024-08-22T18:09:47.728Z,Manhattan,Sea Beach,N,72,BMT,0,N03,Open Cut,,Fort Hamilton Pkwy,-74.005351,0,2024-08-22T18:09:53.410Z,0,row-gxk7_guxj_mbhs,Coney Island,FALSE,Bk,40.631386
391,rv-k4n4-qfc2_hubk,2024-08-22T18:09:47.728Z,Northbound,Jerome Av,4 5,391,IRT,0,416,Subway,,138 St-Grand Concourse,-73.929849,0,2024-08-22T18:09:53.410Z,0,row-csku_xisd-ugiw,Manhattan,FALSE,Bx,40.813224
13,rv-uz72_xzw8.fuz4,2024-08-22T18:09:47.728Z,Uptown,Broadway - Brighton,R W,13,BMT,0,R18,Subway,,28 St,-73.988691,0,2024-08-22T18:09:53.410Z,0,row-i7br-dad8.ypvt,Downtown,TRUE,M,40.745494
445,rv-rv5k~apxz.8ij4,2024-08-22T18:09:47.728Z,Eastchester,Dyre Av,5,445,IRT,0,504,Open Cut,,Pelham Pkwy,-73.855359,0,2024-08-22T18:09:53.410Z,0,row-qbkw_ueyk~ck6z,Manhattan,FALSE,Bx,40.858985
382,rv-m7p5.8uqe-napw,2024-08-22T18:09:47.728Z,Northbound,Jerome Av,4,382,IRT,1,407,Elevated,,Fordham Rd,-73.901034,1,2024-08-22T18:09:53.410Z,1,row-wrdi.57ca_s86c,Manhattan,FALSE,Bx,40.862803
55,rv-qwj8.trd2.f8dc,2024-08-22T18:09:47.728Z,Manhattan,Broadway - Brighton,B Q,55,BMT,0,D40,Elevated,,Brighton Beach,-73.961376,0,2024-08-22T18:09:53.410Z,0,row-ic7e.qcd3~uxri,Southbound,FALSE,Bk,40.577621
313,rv-2mrz-h7gx_ubp2,2024-08-22T18:09:47.728Z,Uptown,Broadway - 7Av,1 2 3,313,IRT,1,123,Subway,,72 St,-73.98197,1,2024-08-22T18:09:53.410Z,1,row-cute.nrcb~8bwe,Downtown,FALSE,M,40.778453
146,rv-yq33~x9ts-irwd,2024-08-22T18:09:47.728Z,Uptown,8th Av - Fulton St,A,146,IND,1,A06,Subway,,181 St,-73.937969,1,2024-08-22T18:09:53.410Z,1,row-686g-84pr.9d9e,Downtown,FALSE,M,40.851695
50,rv-e8fu-hys2-amr4,2024-08-22T18:09:47.728Z,Manhattan,Broadway - Brighton,Q,50,BMT,0,D34,Open Cut,,Avenue M,-73.959399,0,2024-08-22T18:09:53.410Z,0,row-zeah_mkmv-rupv,Southbound,FALSE,Bk,40.617618
465,rv-n6zt.v6vx.adri,2024-08-22T18:09:47.728Z,Queens,Flushing,7,610,IRT,1,723,Subway,,Grand Central-42 St,-73.976041,1,2024-08-22T18:09:53.410Z,1,row-tf9e~grr8_8q2m,Hudson Yards,TRUE,M,40.751431
335,rv-vctg~x8ge_473w,2024-08-22T18:09:47.728Z,Manhattan,Clark St,2 3,620,IRT,1,232,Subway,,Borough Hall,-73.989998,1,2024-08-22T18:09:53.410Z,1,row-mcuv.64sh_v3wi,Outbound,FALSE,Bk,40.693219
236,rv-48rg-xrb3~5imn,2024-08-22T18:09:47.728Z,Northbound,6th Av - Culver,F G,236,IND,0,F20,Subway,,Bergen St,-73.990862,0,2024-08-22T18:09:53.410Z,0,row-4uzm.2c4x~wczi,Southbound,FALSE,Bk,40.686145
181,rv-b3nd~ctje.3t8m,2024-08-22T18:09:47.728Z,Manhattan,8th Av - Fulton St,A C,181,IND,1,A48,Subway,,Utica Av,-73.930729,1,2024-08-22T18:09:53.410Z,1,row-9kfa_vpiu-pf4k,Outbound,FALSE,Bk,40.679364
350,rv-f4wd.zqbf_5idv,2024-08-22T18:09:47.728Z,Manhattan,Eastern Pky,3,350,IRT,0,255,Elevated,,Pennsylvania Av,-73.894895,0,2024-08-22T18:09:53.410Z,0,row-8gdf~5bu2-bmas,New Lots,FALSE,Bk,40.664635
87,rv-zwee-rjd7.p3b8,2024-08-22T18:09:47.728Z,Outbound,Jamaica,J Z,87,BMT,0,J20,Elevated,,Crescent St,-73.873785,0,2024-08-22T18:09:53.410Z,0,row-b82j-5r8u~nbfx,Manhattan,FALSE,Bk,40.683194
160,rv-6bb5~qgnh_fj3q,2024-08-22T18:09:47.728Z,Uptown,8th Av - Fulton St,C B,160,IND,0,A22,Subway,,72 St,-73.97641,0,2024-08-22T18:09:53.410Z,0,row-yzfr_b2jg.by82,Downtown,FALSE,M,40.775594
187,rv-utnd.mikb-uxjq,2024-08-22T18:09:47.728Z,Manhattan,8th Av - Fulton St,C,187,IND,0,A54,Subway,,Shepherd Av,-73.88075,0,2024-08-22T18:09:53.410Z,0,row-5vmi_8xru-b5fx,Outbound,FALSE,Bk,40.67413
406,rv-cg5k_tfi4_2rqc,2024-08-22T18:09:47.728Z,Uptown,Lexington Av,4 5 6,602,IRT,0,635,Subway,,14 St-Union Sq,-73.989951,0,2024-08-22T18:09:53.410Z,0,row-23kc.jr7j_kck4,Downtown,TRUE,M,40.734673
172,rv-bb43_b4jw_k724,2024-08-22T18:09:47.728Z,Uptown,8th Av - Fulton St,A C,628,IND,1,A38,Subway,,Fulton St,-74.007691,1,2024-08-22T18:09:53.410Z,1,row-g3fd-xap9~zw7w,Brooklyn,TRUE,M,40.710197
114,rv-hk78~ezff.sphu,2024-08-22T18:09:47.728Z,Inbound,Myrtle Av,M,114,BMT,0,M10,Elevated,,Central Av,-73.927397,0,2024-08-22T18:09:53.410Z,0,row-dpuk_gsxm.nhet,Middle Village,FALSE,Bk,40.697857
219,rv-7wnx~n2a4_9j2f,2024-08-22T18:09:47.728Z,Northbound,Concourse,B D,604,IND,1,D11,Subway,,161 St-Yankee Stadium,-73.925651,1,2024-08-22T18:09:53.410Z,1,row-zye5.7tyj.644w,Manhattan,FALSE,Bx,40.827905
274,rv-73zn_yjsf-s5xh,2024-08-22T18:09:47.728Z,Outbound,Queens Blvd,E M,606,IND,0,F09,Subway,Manhattan-bound only,Court Sq-23 St,-73.946,1,2024-08-22T18:09:53.410Z,2,row-fufu~af6d~xmeu,Manhattan,FALSE,Q,40.747846
419,rv-bwkg-iw89.yjht,2024-08-22T18:09:47.728Z,Northbound,Lenox - White Plains Rd,2 5,419,IRT,0,206,Elevated,,225 St,-73.860341,0,2024-08-22T18:09:53.410Z,0,row-837k-85em-hc9b,Manhattan,FALSE,Bx,40.888022
82,rv-2sfq~akvx-3k74,2024-08-22T18:09:47.728Z,Jamaica,Jamaica,J Z,82,BMT,0,J14,Elevated,,104 St,-73.84433,0,2024-08-22T18:09:53.410Z,0,row-pmda-a836-dm48,Manhattan,FALSE,Q,40.695178
377,rv-dhcp_kvdi.5i4i,2024-08-22T18:09:47.728Z,Northbound,Pelham,6,377,IRT,0,619,Subway,,3 Av-138 St,-73.926138,0,2024-08-22T18:09:53.410Z,0,row-mcxw-9tq5~kiuv,Manhattan,FALSE,Bx,40.810476
230,rv-buv3.wusd~gd7t,2024-08-22T18:09:47.728Z,Uptown,6th Av - Culver,B D F M,619,IND,1,D21,Subway,,Broadway-Lafayette St,-73.996204,1,2024-08-22T18:09:53.410Z,1,row-iy6e.pa4z~ekf9,Downtown,TRUE,M,40.725297
362,rv-82b6-z6ry~wrnh,2024-08-22T18:09:47.728Z,Pelham Bay,Pelham,6,362,IRT,0,603,Elevated,,Middletown Rd,-73.836322,0,2024-08-22T18:09:53.410Z,0,row-sdsa_pnrn.39hc,Manhattan,FALSE,Bx,40.843863
451,rv-v83d.hjpi_u67s,2024-08-22T18:09:47.728Z,Outbound,Flushing,7,451,IRT,1,707,Elevated,,Junction Blvd,-73.869527,1,2024-08-22T18:09:53.410Z,1,row-8n8v-z5zq-ze36,Manhattan,FALSE,Q,40.749145
77,rv-fzni-3rgg-x86w,2024-08-22T18:09:47.728Z,Manhattan,Sea Beach,N,77,BMT,0,N08,Open Cut,,Kings Hwy,-73.980353,0,2024-08-22T18:09:53.410Z,0,row-8wf5_k46w-b5at,Coney Island,FALSE,Bk,40.603923
8,rv-4v5z~yenn.yuqg,2024-08-22T18:09:47.728Z,Queens,Astoria,N R W,8,BMT,0,R13,Subway,,5 Av/59 St,-73.973347,0,2024-08-22T18:09:53.410Z,0,row-nht6_c85y~r2zc,Downtown,TRUE,M,40.764811
245,rv-bsmw~84si~uaz9,2024-08-22T18:09:47.728Z,Manhattan,6th Av - Culver,F,245,IND,0,F30,Elevated,,18 Av,-73.976971,0,2024-08-22T18:09:53.410Z,0,row-gei6_86dn-pqmz,Southbound,FALSE,Bk,40.629755
318,rv-gsu5_gjeh_zihr,2024-08-22T18:09:47.728Z,Uptown,Broadway - 7Av,1 2 3,318,IRT,1,128,Subway,,34 St-Penn Station,-73.991057,1,2024-08-22T18:09:53.410Z,1,row-spvg~c8fj-uuvb,Downtown,TRUE,M,40.750373
40,rv-9w9d-3xre-9x63,2024-08-22T18:09:47.728Z,Manhattan,Broadway - Brighton,B Q,617,BMT,1,D24,Subway,,Atlantic Av-Barclays Ctr,-73.97689,1,2024-08-22T18:09:53.410Z,1,row-pvsy_xfjh_dbw5,Southbound,FALSE,Bk,40.68446
434,rv-ee52.ncnd-xy7x,2024-08-22T18:09:47.728Z,Northbound,Lenox - White Plains Rd,2 5,434,IRT,1,221,Subway,,3 Av-149 St,-73.917757,1,2024-08-22T18:09:53.410Z,1,row-wwta~e9kh_mx82,Manhattan,FALSE,Bx,40.816109
99,rv-8zcp_fy64~yyem,2024-08-22T18:09:47.728Z,Outbound,Jamaica,M J,99,BMT,0,M13,Elevated,,Lorimer St,-73.947408,0,2024-08-22T18:09:53.410Z,0,row-3jbe-7t57~c2te,Manhattan,FALSE,Bk,40.703869
303,rv-9b5k_e7qn_3icj,2024-08-22T18:09:47.728Z,Uptown,Broadway - 7Av,1,303,IRT,0,113,Subway,,157 St,-73.94489,0,2024-08-22T18:09:53.410Z,0,row-fhje.3bjm-x77j,Downtown,FALSE,M,40.834041
271,rv-dv85~xu5i-gxqr,2024-08-22T18:09:47.728Z,Outbound,Queens Blvd,M R,271,IND,0,G19,Subway,,Steinway St,-73.92074,0,2024-08-22T18:09:53.410Z,0,row-zmvj~apxa_mj2p,Manhattan,FALSE,Q,40.756879
208,rv-z3w2-933w_kq2a,2024-08-22T18:09:47.728Z,Manhattan,Rockaway,A,208,IND,0,H10,Viaduct,,Beach 25 St,-73.761353,0,2024-08-22T18:09:53.410Z,0,row-3e55~u646.2v5u,Far Rockaway,FALSE,Q,40.600066
503,rv-zcs8_d2j4-im7v,2024-08-22T18:09:47.728Z,Ferry,Staten Island,SIR,503,SIR,0,S29,Elevated,,Stapleton,-74.075162,0,2024-08-22T18:09:53.410Z,0,row-8swy.j357_x3v7,South Shore,FALSE,SI,40.627915
387,rv-pndw.m5k9~chex,2024-08-22T18:09:47.728Z,Northbound,Jerome Av,4,387,IRT,1,412,Elevated,,170 St,-73.917791,1,2024-08-22T18:09:53.410Z,1,row-ze2t.xbts_b9jn,Manhattan,FALSE,Bx,40.840075
522,rv-kkqi-htzc_iend,2024-08-22T18:09:47.728Z,Ferry,Staten Island,SIR,522,SIR,1,S09,At Grade,,Tottenville,-74.251961,1,2024-08-22T18:09:53.410Z,1,row-qzck~sfnk~p8bf,Last Stop,FALSE,SI,40.512764
345,rv-jxvb-eje5~5ps8,2024-08-22T18:09:47.728Z,Manhattan,Eastern Pky,3 4,345,IRT,1,250,Subway,,Crown Hts-Utica Av,-73.932942,1,2024-08-22T18:09:53.410Z,1,row-xiax_bm4c.ya7n,Outbound,FALSE,Bk,40.668897
367,rv-uwbz-9ctq~eynu,2024-08-22T18:09:47.728Z,Northbound,Pelham,6,367,IRT,0,609,Elevated,,St Lawrence Av,-73.867618,0,2024-08-22T18:09:53.410Z,0,row-2526~vss9_wmkf,Manhattan,FALSE,Bx,40.831509
104,rv-d82y-i2sp~3mws,2024-08-22T18:09:47.728Z,Brooklyn,Jamaica,J Z,623,BMT,0,M20,Subway,,Canal St,-73.999892,0,2024-08-22T18:09:53.410Z,0,row-d9ki-ykf3~uhzb,Downtown,TRUE,M,40.718092
323,rv-grmr-9r7x_dk8q,2024-08-22T18:09:47.728Z,Uptown,Broadway - 7Av,1,323,IRT,0,133,Subway,,Christopher St-Stonewall,-74.002906,0,2024-08-22T18:09:53.410Z,0,row-fm4x~d6vd~h5rr,Downtown,TRUE,M,40.733422
142,rv-dkr8_wpmq_h9ap,2024-08-22T18:09:47.728Z,Franklin Av,Franklin Shuttle,S,626,BMT,0,S04,Open Cut,,Botanic Garden,-73.959245,0,2024-08-22T18:09:53.410Z,0,row-cfq6.c2hr.574h,Prospect Park,FALSE,Bk,40.670343
213,rv-q34a~8eki~mpam,2024-08-22T18:09:47.728Z,Northbound,Concourse,B D,213,IND,0,D05,Subway,,Fordham Rd,-73.897749,0,2024-08-22T18:09:53.410Z,0,row-xe6t_t7ka-esct,Manhattan,FALSE,Bx,40.861296
92,rv-c96g-8fae~fm6s,2024-08-22T18:09:47.728Z,Outbound,Jamaica,J Z,621,BMT,0,J27,Elevated,,Broadway Junction,-73.904512,0,2024-08-22T18:09:53.410Z,0,row-kq4p_sa5b.b9bs,Manhattan,FALSE,Bk,40.679498
509,rv-dc8i.vtb3-78pu,2024-08-22T18:09:47.728Z,Ferry,Staten Island,SIR,509,SIR,0,S23,Open Cut,,Grant City,-74.109704,0,2024-08-22T18:09:53.410Z,0,row-j7rh~74h9.g5zx,South Shore,FALSE,SI,40.578965
67,rv-imk8~27hx_svbe,2024-08-22T18:09:47.728Z,Manhattan,West End,D,67,BMT,0,B20,Elevated,,20 Av,-73.998168,0,2024-08-22T18:09:53.410Z,0,row-m37j.xq4b-gsj3,Southbound,FALSE,Bk,40.604556
240,rv-dkiv.tffa~hdqz,2024-08-22T18:09:47.728Z,Northbound,6th Av - Culver,F G,240,IND,1,F24,Subway,,7 Av,-73.980305,1,2024-08-22T18:09:53.410Z,1,row-9xpj~9dve_w25n,Southbound,FALSE,Bk,40.666271
251,rv-gx3g~4wi5.psbr,2024-08-22T18:09:47.728Z,Manhattan,6th Av - Culver,F,251,IND,0,F36,Elevated,,Avenue U,-73.973357,0,2024-08-22T18:09:53.410Z,0,row-ns6r_rvw4-mt5j,Coney Island,FALSE,Bk,40.596063
156,rv-zj33.25jq-htc6,2024-08-22T18:09:47.728Z,Uptown,8th Av - Fulton St,C B,156,IND,0,A18,Subway,,103 St,-73.961454,0,2024-08-22T18:09:53.410Z,0,row-u9fe~s4gc_qdrj,Downtown,FALSE,M,40.796092
198,rv-grmg.n9xb~6dxt,2024-08-22T18:09:47.728Z,Manhattan,Rockaway,A,198,IND,1,H03,At Grade,,Howard Beach-JFK Airport,-73.830301,1,2024-08-22T18:09:53.410Z,1,row-fxcn-fjg6_cb5c,Rockaways,FALSE,Q,40.660476
109,rv-a4gw-e56b.56gf,2024-08-22T18:09:47.728Z,Inbound,Myrtle Av,M,109,BMT,0,M04,Elevated,,Fresh Pond Rd,-73.895877,0,2024-08-22T18:09:53.410Z,0,row-7efn_7r98.z6vm,Middle Village,FALSE,Q,40.706186
330,rv-bvm3_t7ib-pqus,2024-08-22T18:09:47.728Z,Uptown,Broadway - 7Av,1,635,IRT,1,142,Subway,,South Ferry,-74.013664,1,2024-08-22T18:09:53.410Z,1,row-dj4r~6ci2~jizf,Last Stop,TRUE,M,40.702068
461,rv-r6mk~uh87_x3j9,2024-08-22T18:09:47.728Z,Astoria,Astoria,N W,461,BMT,0,R09,Elevated,,Queensboro Plaza,-73.940202,0,2024-08-22T18:09:53.410Z,0,row-5hhb.bbxz-a2h2,Manhattan,FALSE,Q,40.750582
131,rv-vuu5~pbm7.gkvd,2024-08-22T18:09:47.728Z,Manhattan,Canarsie,L,131,BMT,0,L21,Subway,,Bushwick Av-Aberdeen St,-73.905249,0,2024-08-22T18:09:53.410Z,0,row-vg84.tmvb.dy3h,Outbound,FALSE,Bk,40.682829
399,rv-qsua.3bph.t54w,2024-08-22T18:09:47.728Z,Uptown,Lexington Av,6,399,IRT,0,628,Subway,,68 St-Hunter College,-73.96387,0,2024-08-22T18:09:53.410Z,0,row-nxs8~ei6y_ae9k,Downtown,FALSE,M,40.768141
278,rv-3ma2-maku~fxyx,2024-08-22T18:09:47.728Z,Last Stop,Queens - Archer,E J Z,278,IND,1,G05,Subway,,Jamaica Center-Parsons/Archer,-73.801109,1,2024-08-22T18:09:53.410Z,1,row-2mx3~jup4.rrpa,Manhattan,FALSE,Q,40.702147
455,rv-42tm.fesj~c3ap,2024-08-22T18:09:47.728Z,Outbound,Flushing,7,455,IRT,0,711,Elevated,,69 St,-73.896403,0,2024-08-22T18:09:53.410Z,0,row-pdws-ze4k.us9a,Manhattan,FALSE,Q,40.746325
223,rv-e89v.33ep.ykvb,2024-08-22T18:09:47.728Z,Uptown & Queens,63rd St,F Q,223,IND,1,B08,Subway,,Lexington Av/63 St,-73.966113,1,2024-08-22T18:09:53.410Z,1,row-bbr2.u9kv~dpa8,Downtown,FALSE,M,40.764629
394,rv-n3ur-3qeg~wsgp,2024-08-22T18:09:47.728Z,The Bronx,Lexington Av,6,394,IRT,0,623,Subway,,110 St,-73.94425,0,2024-08-22T18:09:53.410Z,0,row-vzan.wqxn_e3hb,Downtown,FALSE,M,40.79502
306,rv-te25_v7tu-irh6,2024-08-22T18:09:47.728Z,Uptown,Broadway - 7Av,1,306,IRT,0,116,Elevated,,125 St,-73.958372,0,2024-08-22T18:09:53.410Z,0,row-5ix8.5zyx.qhyg,Downtown,FALSE,M,40.815581
136,rv-rv67~iyav-nzhq,2024-08-22T18:09:47.728Z,Manhattan,Canarsie,L,136,BMT,0,L27,Elevated,,New Lots Av,-73.899232,0,2024-08-22T18:09:53.410Z,0,row-m2im~j78h_97ec,Canarsie,FALSE,Bk,40.658733
299,rv-fhmn~ujzb_tad9,2024-08-22T18:09:47.728Z,The Bronx,Broadway - 7Av,1,299,IRT,1,109,Elevated,,Dyckman St,-73.925536,1,2024-08-22T18:09:53.410Z,1,row-9z32-qh7m~bnuj,Downtown,FALSE,M,40.860531
226,rv-pr2n.xc5m.7ru9,2024-08-22T18:09:47.728Z,Uptown,6th Av - Culver,B D F M,609,IND,0,D16,Subway,,42 St-Bryant Pk,-73.984569,0,2024-08-22T18:09:53.410Z,0,row-h2es-h26i_stje,Downtown,TRUE,M,40.754222
4,rv-rzix_vcph_ukte,2024-08-22T18:09:47.728Z,Astoria,Astoria,N W,4,BMT,0,R05,Elevated,,Broadway,-73.925508,0,2024-08-22T18:09:53.410Z,0,row-ujnp.h58q.72r5,Manhattan,FALSE,Q,40.76182
267,rv-9wnh-4255_qtwi,2024-08-22T18:09:47.728Z,Outbound,Queens Blvd,E F M R,616,IND,1,G14,Subway,,Jackson Hts-Roosevelt Av,-73.891338,1,2024-08-22T18:09:53.410Z,1,row-y7py~jkkw~e2g3,Manhattan,FALSE,Q,40.746644
438,rv-bx3b~kgzs_g7gn,2024-08-22T18:09:47.728Z,Uptown,Lenox - White Plains Rd,2 3,438,IRT,1,224,Subway,,135 St,-73.94077,1,2024-08-22T18:09:53.410Z,1,row-mvbw_kfsc~t6vc,Downtown,FALSE,M,40.814229
431,rv-iza4-jjgu~wxdb,2024-08-22T18:09:47.728Z,Northbound,Lenox - White Plains Rd,2 5,431,IRT,0,218,Elevated,,Intervale Av,-73.896736,0,2024-08-22T18:09:53.410Z,0,row-d3j3-mc39~eunt,Manhattan,FALSE,Bx,40.822181
241,rv-mhth-vcmc.dw79,2024-08-22T18:09:47.728Z,Northbound,6th Av - Culver,F G,241,IND,0,F25,Subway,,15 St-Prospect Park,-73.979493,0,2024-08-22T18:09:53.410Z,0,row-nqq8.zyxc~69f7,Southbound,FALSE,Bk,40.660365
81,rv-g5df~cbsq.bhbf,2024-08-22T18:09:47.728Z,Jamaica,Jamaica,J,81,BMT,0,J13,Elevated,,111 St,-73.836345,0,2024-08-22T18:09:53.410Z,0,row-z35i_vj77.cg5h,Manhattan,FALSE,Q,40.697418
167,rv-i6yh~uwdk_j9qk,2024-08-22T18:09:47.728Z,Uptown,6th Av - Culver,B D F M,167,IND,1,D20,Subway,,W 4 St-Wash Sq,-74.000495,1,2024-08-22T18:09:53.410Z,1,row-na5u_5sv4~xh27,Downtown,TRUE,M,40.732338
36,rv-bfmh.by3m_jgj8,2024-08-22T18:09:47.728Z,Manhattan,4th Av,R,36,BMT,0,R42,Subway,,Bay Ridge Av,-74.023377,0,2024-08-22T18:09:53.410Z,0,row-gb24~pu5e.mnkx,Bay Ridge,FALSE,Bk,40.634967
476,rv-6pyz~r8n2.tg67,2024-08-22T18:09:47.728Z,Uptown,Second Av,Q,476,IND,1,Q04,Subway,,86 St,-73.951787,1,2024-08-22T18:09:53.410Z,1,row-pb39_bg5z_cn94,Downtown,FALSE,M,40.777891
516,rv-4t8d.9unh_3y3b,2024-08-22T18:09:47.728Z,Ferry,Staten Island,SIR,516,SIR,0,S16,Open Cut,,Huguenot,-74.191794,0,2024-08-22T18:09:53.410Z,0,row-aty4-dbgq~rt8x,South Shore,FALSE,SI,40.533674
426,rv-ig56-aw49_dwen,2024-08-22T18:09:47.728Z,Northbound,Lenox - White Plains Rd,2 5,426,IRT,1,213,Elevated,,E 180 St,-73.873488,1,2024-08-22T18:09:53.410Z,1,row-grg7-suf9_8pvi,Manhattan,FALSE,Bx,40.841894
163,rv-bv35_zu9x_vpc8,2024-08-22T18:09:47.728Z,Uptown,8th Av - Fulton St,A C E,611,IND,1,A27,Subway,,42 St-Port Authority Bus Terminal,-73.989735,1,2024-08-22T18:09:53.410Z,1,row-583x_rt79-v8gz,Downtown,TRUE,M,40.757308
374,rv-3jsp_kb6g-x5cp,2024-08-22T18:09:47.728Z,Northbound,Pelham,6,374,IRT,0,616,Subway,,E 143 St-St Mary's St,-73.907657,0,2024-08-22T18:09:53.410Z,0,row-isuy-m8fe_97dn,Manhattan,FALSE,Bx,40.808719
255,rv-uuta.nsng.g8ab,2024-08-22T18:09:47.728Z,Jamaica,Queens Blvd,F,255,IND,0,F02,Subway,,169 St,-73.793604,0,2024-08-22T18:09:53.410Z,0,row-gfja-vmjb-ys9s,Manhattan,FALSE,Q,40.71047
209,rv-rweu~5nmz~9fsr,2024-08-22T18:09:47.728Z,Manhattan,Rockaway,A,209,IND,1,H11,Viaduct,,Far Rockaway-Mott Av,-73.755405,1,2024-08-22T18:09:53.410Z,1,row-b8uh_t895~36kg,Last Stop,FALSE,Q,40.603995
513,rv-b8ak.rywm.3k7s,2024-08-22T18:09:47.728Z,Ferry,Staten Island,SIR,513,SIR,1,S19,Open Cut,,Great Kills,-74.151399,1,2024-08-22T18:09:53.410Z,1,row-w9yg_fgch.tsxg,South Shore,FALSE,SI,40.551231
113,rv-5itj~yhd7_gfba,2024-08-22T18:09:47.728Z,Inbound,Myrtle Av,M,113,BMT,0,M09,Elevated,,Knickerbocker Av,-73.919711,0,2024-08-22T18:09:53.410Z,0,row-5kay_xns9.gaqh,Middle Village,FALSE,Bk,40.698664
342,rv-rar7.xs3a.db6b,2024-08-22T18:09:47.728Z,Manhattan,Eastern Pky,2 3 4 5,626,IRT,0,239,Subway,,Franklin Av-Medgar Evers College,-73.958131,0,2024-08-22T18:09:53.410Z,0,row-vhe3-qgx6_8cfx,Outbound,FALSE,Bk,40.670682
124,rv-kkdj-c6ih-uniw,2024-08-22T18:09:47.728Z,Manhattan,Canarsie,L,124,BMT,0,L13,Subway,,Montrose Av,-73.93985,0,2024-08-22T18:09:53.410Z,0,row-c69u.6phq.bi2e,Outbound,FALSE,Bk,40.707739
355,rv-nc9w.kxhc.9mgq,2024-08-22T18:09:47.728Z,Manhattan,Nostrand,2 5,355,IRT,0,243,Subway,,Winthrop St,-73.9502,0,2024-08-22T18:09:53.410Z,0,row-smrz_e4qe_edqi,Flatbush,FALSE,Bk,40.656652
458,rv-sxeq-itgn_3qui,2024-08-22T18:09:47.728Z,Outbound,Flushing,7,458,IRT,0,714,Elevated,,46 St-Bliss St,-73.918435,0,2024-08-22T18:09:53.410Z,0,row-m5qe-nfmq_axxx,Manhattan,FALSE,Q,40.743132
194,rv-mixu-rkfd-hjku,2024-08-22T18:09:47.728Z,Manhattan,Liberty Av,A,194,IND,0,A64,Elevated,,111 St,-73.832163,0,2024-08-22T18:09:53.410Z,0,row-8kry.vy82-pysr,Ozone Park,FALSE,Q,40.684331
147,rv-9c4q.uy6m~93nh,2024-08-22T18:09:47.728Z,Uptown,8th Av - Fulton St,A,147,IND,1,A07,Subway,,175 St,-73.939704,1,2024-08-22T18:09:53.410Z,1,row-isj2~b2zq~aeg2,Downtown,FALSE,M,40.847391
49,rv-tz6d_rg96~thkj,2024-08-22T18:09:47.728Z,Manhattan,Broadway - Brighton,Q,49,BMT,0,D33,Open Cut,,Avenue J,-73.960803,0,2024-08-22T18:09:53.410Z,0,row-xvbe.y9z3-q528,Southbound,FALSE,Bk,40.625039
64,rv-huxf~susx.79yb,2024-08-22T18:09:47.728Z,Manhattan,West End,D,64,BMT,0,B17,Elevated,,71 St,-73.998864,0,2024-08-22T18:09:53.410Z,0,row-m8m2.mp2i-hzkp,Southbound,FALSE,Bk,40.619589
295,rv-5izy_59pk~ppcr,2024-08-22T18:09:47.728Z,Van Cortlandt,Broadway - 7Av,1,295,IRT,1,104,Elevated,,231 St,-73.904834,1,2024-08-22T18:09:53.410Z,1,row-7nfn~4w4h.snyg,Manhattan,FALSE,Bx,40.878856
19,rv-fw8j~6xii.q4rx,2024-08-22T18:09:47.728Z,Uptown,Manhattan Bridge,N Q,623,BMT,0,Q01,Subway,,Canal St,-74.00046,0,2024-08-22T18:09:53.410Z,0,row-hzse_fjt7_d5eg,Downtown,TRUE,M,40.718383
282,rv-kvtf-ef2h~25sh,2024-08-22T18:09:47.728Z,Court Square,Crosstown,G,282,IND,0,G24,Subway,,21 St,-73.949724,0,2024-08-22T18:09:53.410Z,0,row-dn4g.j6ai~pzmt,Brooklyn,FALSE,Q,40.744065
151,rv-spt7_h7uz~h33q,2024-08-22T18:09:47.728Z,Uptown,Concourse,B D,151,IND,0,D13,Subway,,145 St,-73.944216,0,2024-08-22T18:09:53.410Z,0,row-k2xm~8zd4-n59k,Downtown,FALSE,M,40.824783
414,rv-uatu-9nvn_njvh,2024-08-22T18:09:47.728Z,Uptown,Lexington Av,4 5,414,IRT,1,420,Subway,,Bowling Green,-74.014065,1,2024-08-22T18:09:53.410Z,1,row-wcmv-6uiy~mw9j,Downtown,TRUE,M,40.704817
96,rv-ntb7.73ax-tw48,2024-08-22T18:09:47.728Z,Outbound,Jamaica,J,96,BMT,0,J31,Elevated,,Kosciuszko St,-73.928814,0,2024-08-22T18:09:53.410Z,0,row-d6ju_idqd_p8gq,Manhattan,FALSE,Bk,40.693342
327,rv-fa4b-cr5i-4ry7,2024-08-22T18:09:47.728Z,Uptown,Broadway - 7Av,1 2 3,327,IRT,1,137,Subway,,Chambers St,-74.009266,1,2024-08-22T18:09:53.410Z,1,row-74sx-36zp~2n2v,Downtown,TRUE,M,40.715478
409,rv-vwa8.r6ah~knqi,2024-08-22T18:09:47.728Z,Uptown,Lexington Av,6,409,IRT,0,638,Subway,,Spring St,-73.997141,0,2024-08-22T18:09:53.410Z,0,row-w2b6_ige5~ju8j,Downtown,TRUE,M,40.722301
263,rv-nt6n-kn6u_9t2t,2024-08-22T18:09:47.728Z,Outbound,Queens Blvd,M R,263,IND,0,G10,Subway,,63 Dr-Rego Park,-73.861604,0,2024-08-22T18:09:53.410Z,0,row-77gr_y4t3~b5j4,Manhattan,FALSE,Q,40.729846
310,rv-avag-7xbx-fsdv,2024-08-22T18:09:47.728Z,Uptown,Broadway - 7Av,1 2 3,310,IRT,1,120,Subway,,96 St,-73.972323,1,2024-08-22T18:09:53.410Z,1,row-me3i-d2tj_mwn4,Downtown,FALSE,M,40.793919
51,rv-8t9f-eiwh-cv26,2024-08-22T18:09:47.728Z,Manhattan,Broadway - Brighton,B Q,51,BMT,1,D35,Open Cut,,Kings Hwy,-73.957734,1,2024-08-22T18:09:53.410Z,1,row-mw5a~jmt7-gdhw,Southbound,FALSE,Bk,40.60867
68,rv-cgrf_sz8k~6tnv,2024-08-22T18:09:47.728Z,Manhattan,West End,D,68,BMT,1,B21,Elevated,,Bay Pkwy,-73.993728,1,2024-08-22T18:09:53.410Z,1,row-xs4e~ggtz-p7gr,Southbound,FALSE,Bk,40.601875
199,rv-43jk.iyby_zugd,2024-08-22T18:09:47.728Z,Inbound,Rockaway,A S,199,IND,0,H04,At Grade,,Broad Channel,-73.815925,0,2024-08-22T18:09:53.410Z,0,row-drs3~scqb~zy25,Rockaways,FALSE,Q,40.608382
177,rv-34rc~gvgq-zjf9,2024-08-22T18:09:47.728Z,Manhattan,8th Av - Fulton St,C,177,IND,0,A44,Subway,,Clinton-Washington Avs,-73.965838,0,2024-08-22T18:09:53.410Z,0,row-yu4u_ei7v.4tgv,Outbound,FALSE,Bk,40.683263
182,rv-kuun~atsk-xtfn,2024-08-22T18:09:47.728Z,Manhattan,8th Av - Fulton St,C,182,IND,0,A49,Subway,,Ralph Av,-73.920786,0,2024-08-22T18:09:53.410Z,0,row-4qvj_nhee-t84z,Outbound,FALSE,Bk,40.678822
331,rv-xasz-ky6m-rmn4,2024-08-22T18:09:47.728Z,Uptown,Clark St,2 3,624,IRT,0,228,Subway,,Park Place,-74.008811,0,2024-08-22T18:09:53.410Z,0,row-ghq3~7jib.qrr2,Brooklyn,TRUE,M,40.713051
441,rv-m5vf.4c3i~7r23,2024-08-22T18:09:47.728Z,Uptown,Lenox - White Plains Rd,2 3,441,IRT,0,227,Subway,,Central Park North (110 St),-73.951822,0,2024-08-22T18:09:53.410Z,0,row-8v77.2s5e-czyu,Downtown,FALSE,M,40.799075
17,rv-vir9_qktq-hgyk,2024-08-22T18:09:47.728Z,Uptown,Broadway - Brighton,R W,17,BMT,0,R22,Subway,,Prince St,-73.997702,0,2024-08-22T18:09:53.410Z,0,row-zj8w_vazn_2qyy,Downtown,TRUE,M,40.724329
370,rv-7bei.z4ir-fz3i,2024-08-22T18:09:47.728Z,Northbound,Pelham,6,370,IRT,0,612,Elevated,,Whitlock Av,-73.886283,0,2024-08-22T18:09:53.410Z,0,row-9cs8_ck3w.ftzs,Manhattan,FALSE,Bx,40.826525
462,rv-2zmx_zp8x_27qt,2024-08-22T18:09:47.728Z,Outbound,Flushing,7,606,IRT,1,719,Elevated,,Court Sq,-73.945264,1,2024-08-22T18:09:53.410Z,1,row-phhb.myib.spvr,Manhattan,FALSE,Q,40.747023
128,rv-hyud.jjcy.isiq,2024-08-22T18:09:47.728Z,Manhattan,Canarsie,L,630,BMT,1,L17,Subway,,Myrtle-Wyckoff Avs,-73.911586,1,2024-08-22T18:09:53.410Z,1,row-mqbu.73j6.7rnw,Outbound,FALSE,Bk,40.699814
338,rv-m6dj.6s8s.jgff,2024-08-22T18:09:47.728Z,Manhattan,Eastern Pky,2 3 4 5,617,IRT,1,235,Subway,,Atlantic Av-Barclays Ctr,-73.977666,1,2024-08-22T18:09:53.410Z,1,row-eunc.wcrg-38z4,Outbound,FALSE,Bk,40.684359
469,rv-mv8b~5wsn.xfey,2024-08-22T18:09:47.728Z,Times Square,Lexington - Shuttle,S,610,IRT,1,901,Subway,,Grand Central-42 St,-73.979189,1,2024-08-22T18:09:53.410Z,1,row-vesk-ha5c-bren,Last Stop,TRUE,M,40.752769
359,rv-j7a5~6ygy-p5n2,2024-08-22T18:09:47.728Z,Manhattan,Nostrand,2 5,359,IRT,1,247,Subway,,Flatbush Av-Brooklyn College,-73.947642,1,2024-08-22T18:09:53.410Z,1,row-7xxw~ssnn.ixk8,Last Stop,FALSE,Bk,40.632836
32,rv-2bc6-s43b-44nh,2024-08-22T18:09:47.728Z,Manhattan,4th Av,D N R,32,BMT,0,R36,Subway,,36 St,-74.003549,0,2024-08-22T18:09:53.410Z,0,row-652h.gb3a~vzyg,Southbound,FALSE,Bk,40.655144
336,rv-2uqu_mzui~my3k,2024-08-22T18:09:47.728Z,Manhattan,Eastern Pky,2 3,336,IRT,1,233,Subway,Outbound only,Hoyt St,-73.985065,0,2024-08-22T18:09:53.410Z,2,row-j3mj_rvu9-sgrd,Outbound,FALSE,Bk,40.690545
155,rv-jnfi~n8bu.pexh,2024-08-22T18:09:47.728Z,Uptown,8th Av - Fulton St,C B,155,IND,0,A17,Subway,,Cathedral Pkwy (110 St),-73.958161,0,2024-08-22T18:09:53.410Z,0,row-fxwj_b3k5-d34w,Downtown,FALSE,M,40.800603
12,rv-a3ki.grem-w8sh,2024-08-22T18:09:47.728Z,Uptown,Broadway - Brighton,N Q R W,607,BMT,1,R17,Subway,,34 St-Herald Sq,-73.98795,1,2024-08-22T18:09:53.410Z,1,row-gbuv-8sb8~xaan,Downtown,TRUE,M,40.749567
73,rv-cpbf-h7da~hq3v,2024-08-22T18:09:47.728Z,Manhattan,Sea Beach,N,615,BMT,1,N04,Open Cut,,New Utrecht Av,-73.996353,1,2024-08-22T18:09:53.410Z,1,row-9duu-iixd_dpyj,Coney Island,FALSE,Bk,40.624842
175,rv-jsi6~fbtd~kptr,2024-08-22T18:09:47.728Z,Westbound,8th Av - Fulton St,A C G,175,IND,0,A42,Subway,,Hoyt-Schermerhorn Sts,-73.985001,0,2024-08-22T18:09:53.410Z,0,row-swwn.yure_ki37,Queens,FALSE,Bk,40.688484
386,rv-qjhx_fb2j_sith,2024-08-22T18:09:47.728Z,Northbound,Jerome Av,4,386,IRT,0,411,Elevated,,Mt Eden Av,-73.914685,0,2024-08-22T18:09:53.410Z,0,row-krmk.manm~3jmr,Manhattan,FALSE,Bx,40.844434
314,rv-69fz-mxb4.9dpn,2024-08-22T18:09:47.728Z,Uptown,Broadway - 7Av,1,314,IRT,1,124,Subway,,66 St-Lincoln Center,-73.982209,1,2024-08-22T18:09:53.410Z,1,row-wq7m~bb3s-22kg,Downtown,FALSE,M,40.77344
446,rv-bmyz.gc5n.wgqc,2024-08-22T18:09:47.728Z,Eastchester,Dyre Av,5,446,IRT,0,505,Open Cut,,Morris Park,-73.860495,0,2024-08-22T18:09:53.410Z,0,row-dcup~fcvz-dbvs,Manhattan,FALSE,Bx,40.854364
145,rv-kkme_ybpx_qah8,2024-08-22T18:09:47.728Z,Uptown,8th Av - Fulton St,A,145,IND,0,A05,Subway,,190 St,-73.93418,0,2024-08-22T18:09:53.410Z,0,row-hnx9_yfnc-a6m5,Downtown,FALSE,M,40.859022
44,rv-trcf~g53r_xfxq,2024-08-22T18:09:47.728Z,Manhattan,Broadway - Brighton,B Q,44,BMT,0,D28,Open Cut,,Church Av,-73.962982,0,2024-08-22T18:09:53.410Z,0,row-u7aq_ah5i.6k3k,Southbound,FALSE,Bk,40.650527
250,rv-4g6y-2dcx-v9p6,2024-08-22T18:09:47.728Z,Manhattan,6th Av - Culver,F,250,IND,0,F35,Elevated,,Kings Hwy,-73.972361,0,2024-08-22T18:09:53.410Z,0,row-pmpd~nck5_b6rr,Southbound,FALSE,Bk,40.603217
464,rv-bk5k.bcsp~vgvr,2024-08-22T18:09:47.728Z,Outbound,Flushing,7,464,IRT,0,721,Subway,,Vernon Blvd-Jackson Av,-73.953581,0,2024-08-22T18:09:53.410Z,0,row-cv2b.5nj5~gau8,Manhattan,FALSE,Q,40.742626
231,rv-cvjx.7ipg_3v69,2024-08-22T18:09:47.728Z,Uptown,6th Av - Culver,B D,231,IND,0,D22,Subway,,Grand St,-73.993753,0,2024-08-22T18:09:53.410Z,0,row-s858~fyiu.ws58,Brooklyn,TRUE,M,40.718267
450,rv-9jy6_efbe-vd99,2024-08-22T18:09:47.728Z,Outbound,Flushing,7,450,IRT,0,706,Elevated,,103 St-Corona Plaza,-73.8627,0,2024-08-22T18:09:53.410Z,0,row-au97_fiv7~j7g5,Manhattan,FALSE,Q,40.749865
100,rv-wybb~zr6s.26ag,2024-08-22T18:09:47.728Z,Outbound,Jamaica,M J,100,BMT,0,M14,Elevated,,Hewes St,-73.953431,0,2024-08-22T18:09:53.410Z,0,row-nifx.nsw3_uusq,Manhattan,FALSE,Bk,40.70687
363,rv-94g7.6a45.xbzx,2024-08-22T18:09:47.728Z,Pelham Bay,Pelham,6,363,IRT,0,604,Elevated,,Westchester Sq-E Tremont Av,-73.842952,0,2024-08-22T18:09:53.410Z,0,row-x33h_6x5j.bqfi,Manhattan,FALSE,Bx,40.839892
88,rv-3ime-3iz6-gimq,2024-08-22T18:09:47.728Z,Outbound,Jamaica,J Z,88,BMT,0,J21,Elevated,,Norwood Av,-73.880039,0,2024-08-22T18:09:53.410Z,0,row-vfs5.zupb.fmkx,Manhattan,FALSE,Bk,40.68141
508,rv-jjh4~sfka-zhe6,2024-08-22T18:09:47.728Z,Ferry,Staten Island,SIR,508,SIR,0,S24,Embankment,,Jefferson Av,-74.103338,0,2024-08-22T18:09:53.410Z,0,row-z9rs~ee2p-8ybj,South Shore,FALSE,SI,40.583591
203,rv-rua8~9csm.ws4y,2024-08-22T18:09:47.728Z,Inbound,Rockaway,A S,203,IND,1,H15,At Grade,,Rockaway Park-Beach 116 St,-73.835592,1,2024-08-22T18:09:53.410Z,1,row-6fyr.ihtc-ifgw,Last Stop,FALSE,Q,40.580903
523,rv-g8qr-kv6z.2y5n,2024-08-22T18:09:47.728Z,Ferry,Staten Island,SIR,523,SIR,1,S11,At Grade,,Arthur Kill,-74.242096,1,2024-08-22T18:09:53.410Z,1,row-35f5-kee9-cjpq,Tottenville,FALSE,SI,40.516578
218,rv-pz2d.i4vx~r8je,2024-08-22T18:09:47.728Z,Northbound,Concourse,B D,218,IND,0,D10,Subway,,167 St,-73.91844,0,2024-08-22T18:09:53.410Z,0,row-ii2c-y4c5-k9jh,Manhattan,FALSE,Bx,40.833771
105,rv-5qxf.yuj9.45cx,2024-08-22T18:09:47.728Z,Brooklyn,Jamaica,J Z,622,BMT,1,M21,Subway,,Chambers St,-74.003401,1,2024-08-22T18:09:53.410Z,1,row-dk98_sm53-3eus,Downtown,TRUE,M,40.713243
368,rv-acxm~ypwy~65w5,2024-08-22T18:09:47.728Z,Northbound,Pelham,6,368,IRT,0,610,Elevated,,Morrison Av-Soundview,-73.874516,0,2024-08-22T18:09:53.410Z,0,row-3jra-qgr4~zrau,Manhattan,FALSE,Bx,40.829521
319,rv-abid-v42n.tj2g,2024-08-22T18:09:47.728Z,Uptown,Broadway - 7Av,1,319,IRT,0,129,Subway,,28 St,-73.993365,0,2024-08-22T18:09:53.410Z,0,row-d7md.2293_huin,Downtown,TRUE,M,40.747215
41,rv-pmhn_xfrs_brvr,2024-08-22T18:09:47.728Z,Manhattan,Broadway - Brighton,B Q,41,BMT,0,D25,Subway,,7 Av,-73.972367,0,2024-08-22T18:09:53.410Z,0,row-aejv-ha9e.5wx6,Southbound,FALSE,Bk,40.67705
304,rv-vb6q.sizp.jh6h,2024-08-22T18:09:47.728Z,Uptown,Broadway - 7Av,1,304,IRT,0,114,Subway,,145 St,-73.95036,0,2024-08-22T18:09:53.410Z,0,row-erxr.r6cw-zn53,Downtown,FALSE,M,40.826551
27,rv-ypmm-b679-ypmk,2024-08-22T18:09:47.728Z,Manhattan,4th Av,D N R,617,BMT,1,R31,Subway,,Atlantic Av-Barclays Ctr,-73.97881,1,2024-08-22T18:09:53.410Z,1,row-hg6x-7j37_weux,Southbound,FALSE,Bk,40.683666
258,rv-6t4w.3dr2.u3th,2024-08-22T18:09:47.728Z,Jamaica,Queens Blvd,E F,258,IND,0,F05,Subway,,Briarwood,-73.820574,0,2024-08-22T18:09:53.410Z,0,row-3bvj.xkca_724g,Manhattan,FALSE,Q,40.709179
159,rv-k5e3_yjgx.fpag,2024-08-22T18:09:47.728Z,Uptown,8th Av - Fulton St,C B,159,IND,0,A21,Subway,,81 St-Museum of Natural History,-73.972143,0,2024-08-22T18:09:53.410Z,0,row-vu2t.6i5b~yktq,Downtown,FALSE,M,40.781433
351,rv-kpfg~nbq6-nzr7,2024-08-22T18:09:47.728Z,Manhattan,Eastern Pky,3,351,IRT,0,256,Elevated,,Van Siclen Av,-73.889395,0,2024-08-22T18:09:53.410Z,0,row-md55-rf4e.zbu6,New Lots,FALSE,Bk,40.665449
390,rv-9bu6.6gxh.z2p5,2024-08-22T18:09:47.728Z,Northbound,Jerome Av,4,603,IRT,0,415,Subway,,149 St-Grand Concourse,-73.927351,0,2024-08-22T18:09:53.410Z,0,row-5kcc~gb2x_syj7,Manhattan,FALSE,Bx,40.818375
186,rv-czne_zccn~pb9f,2024-08-22T18:09:47.728Z,Manhattan,8th Av - Fulton St,C,186,IND,0,A53,Subway,,Van Siclen Av,-73.890358,0,2024-08-22T18:09:53.410Z,0,row-wpx8_2hh7_p63y,Outbound,FALSE,Bk,40.67271
56,rv-bu4h.9eeh-an6n,2024-08-22T18:09:47.728Z,Manhattan,Broadway - Brighton,Q,56,BMT,0,D41,Elevated,,Ocean Pkwy,-73.968501,0,2024-08-22T18:09:53.410Z,0,row-dcxr.vs5t_bx82,Coney Island,FALSE,Bk,40.576312
115,rv-n7nk.y2yd_se4r,2024-08-22T18:09:47.728Z,Last Stop,Canarsie,L,618,BMT,1,L01,Subway,,8 Av,-74.002578,1,2024-08-22T18:09:53.410Z,1,row-zpv8_wp53-gbfz,Brooklyn,TRUE,M,40.739777
401,rv-4y8m_2kcy.cr87,2024-08-22T18:09:47.728Z,Uptown,Lexington Av,6,612,IRT,1,630,Subway,,51 St,-73.97192,1,2024-08-22T18:09:53.410Z,1,row-brvt.f9ut-sb3v,Downtown,TRUE,M,40.757107
171,rv-riqy~gsya.w2jz,2024-08-22T18:09:47.728Z,Uptown,8th Av - Fulton St,E,624,IND,1,E01,Subway,,World Trade Center,-74.009781,1,2024-08-22T18:09:53.410Z,1,row-z4uu_nihy-wzea,Last Stop,TRUE,M,40.712582
141,rv-7yny.j4y2-kjq5,2024-08-22T18:09:47.728Z,Franklin Av,Franklin Shuttle,S,141,BMT,1,S03,Open Cut,,Park Pl,-73.957624,1,2024-08-22T18:09:53.410Z,1,row-ankw.va5b.z2jr,Prospect Park,FALSE,Bk,40.674772
418,rv-zxu4_pams-nm7y,2024-08-22T18:09:47.728Z,Northbound,Lenox - White Plains Rd,2 5,418,IRT,1,205,Elevated,,233 St,-73.857473,1,2024-08-22T18:09:53.410Z,1,row-jdwj-nd9d_jtd9,Manhattan,FALSE,Bx,40.893193
24,rv-e69u_uu5a-rr93,2024-08-22T18:09:47.728Z,Manhattan,Broadway,R,620,BMT,0,R28,Subway,,Court St,-73.991777,0,2024-08-22T18:09:53.410Z,0,row-scx9-6u94.7q25,Southbound,FALSE,Bk,40.6941
9,rv-jsp8-vizk-jeyx,2024-08-22T18:09:47.728Z,Uptown,Broadway - Brighton,N Q R W,9,BMT,1,R14,Subway,,57 St-7 Av,-73.980658,1,2024-08-22T18:09:53.410Z,1,row-m9c3-qtyt_is2t,Downtown,TRUE,M,40.764664
76,rv-aphr~gktu-9amp,2024-08-22T18:09:47.728Z,Manhattan,Sea Beach,N,76,BMT,0,N07,Open Cut,,Bay Pkwy,-73.981848,0,2024-08-22T18:09:53.410Z,0,row-2cwk~tj8n_rtaz,Coney Island,FALSE,Bk,40.611815
290,rv-fsmt.sj5q_msti,2024-08-22T18:09:47.728Z,Queens,Crosstown,G,290,IND,0,G34,Subway,,Classon Av,-73.96007,0,2024-08-22T18:09:53.410Z,0,row-mbia_hhmt.akq2,Southbound,FALSE,Bk,40.688873
120,rv-tnza_v9fu~5ccp,2024-08-22T18:09:47.728Z,Manhattan,Canarsie,L,120,BMT,1,L08,Subway,,Bedford Av,-73.956872,1,2024-08-22T18:09:53.410Z,1,row-fwz3.g9vn.hyjr,Outbound,FALSE,Bk,40.717304
59,rv-vvcw-ehnz_2ddi,2024-08-22T18:09:47.728Z,Manhattan,West End,D,59,BMT,0,B12,Open Cut,,9 Av,-73.994324,0,2024-08-22T18:09:53.410Z,0,row-fiqd~98ym-bqea,Southbound,FALSE,Bk,40.646292
378,rv-ysex_cvyw.g296,2024-08-22T18:09:47.728Z,Last Stop,Jerome Av,4,378,IRT,0,401,Elevated,,Woodlawn,-73.878751,0,2024-08-22T18:09:53.410Z,0,row-icd9.kfca.r7na,Manhattan,FALSE,Bx,40.886037
235,rv-q9i7-7baj-wx28,2024-08-22T18:09:47.728Z,Manhattan,6th Av - Culver,F,235,IND,0,F18,Subway,,York St,-73.986751,0,2024-08-22T18:09:53.410Z,0,row-7y8h_bp8n-wjuj,Southbound,FALSE,Bk,40.701397
246,rv-89yj-935k~5efx,2024-08-22T18:09:47.728Z,Manhattan,6th Av - Culver,F,246,IND,0,F31,Elevated,,Avenue I,-73.976127,0,2024-08-22T18:09:53.410Z,0,row-y2n4-nsmz-zg68,Southbound,FALSE,Bk,40.625322
433,rv-bann_hqu3_fwpn,2024-08-22T18:09:47.728Z,Northbound,Lenox - White Plains Rd,2 5,433,IRT,0,220,Elevated,,Jackson Av,-73.907807,0,2024-08-22T18:09:53.410Z,0,row-vifi~uhgf.qn8q,Manhattan,FALSE,Bx,40.81649
207,rv-btfi-renp-am9w,2024-08-22T18:09:47.728Z,Manhattan,Rockaway,A,207,IND,0,H09,Viaduct,,Beach 36 St,-73.768175,0,2024-08-22T18:09:53.410Z,0,row-ianj~9yv6~xrie,Far Rockaway,FALSE,Q,40.595398
504,rv-sxcs.avsm.4dzw,2024-08-22T18:09:47.728Z,Ferry,Staten Island,SIR,504,SIR,0,S28,Elevated,,Clifton,-74.071402,0,2024-08-22T18:09:53.410Z,0,row-6ps8-293k.zt6w,South Shore,FALSE,SI,40.621319
272,rv-tttv-4dv8.eccx,2024-08-22T18:09:47.728Z,Outbound,Queens Blvd,M R,272,IND,0,G20,Subway,,36 St,-73.928781,0,2024-08-22T18:09:53.410Z,0,row-5kwc_zaes_a6q2,Manhattan,FALSE,Q,40.752039
383,rv-wr4w_5h5x.b6u6,2024-08-22T18:09:47.728Z,Northbound,Jerome Av,4,383,IRT,0,408,Elevated,,183 St,-73.903879,0,2024-08-22T18:09:53.410Z,0,row-uby6-857b-vzeh,Manhattan,FALSE,Bx,40.858407
346,rv-59s5~qmeb_redw,2024-08-22T18:09:47.728Z,Manhattan,Eastern Pky,3,346,IRT,0,251,Elevated,,Sutter Av-Rutland Rd,-73.92261,0,2024-08-22T18:09:53.410Z,0,row-78ir~p5i8~vb7f,New Lots,FALSE,Bk,40.664717
83,rv-97ga-piyq~tabz,2024-08-22T18:09:47.728Z,Jamaica,Jamaica,J Z,83,BMT,0,J15,Elevated,,Woodhaven Blvd,-73.851576,0,2024-08-22T18:09:53.410Z,0,row-xkuu~cs9w~tjk9,Manhattan,FALSE,Q,40.693879
214,rv-i4cd-ngvd~p8t6,2024-08-22T18:09:47.728Z,Northbound,Concourse,B D,214,IND,0,D06,Subway,,182-183 Sts,-73.900741,0,2024-08-22T18:09:53.410Z,0,row-93eq-uj3g_u427,Manhattan,FALSE,Bx,40.856093
287,rv-47i4~dt2z_fzfu,2024-08-22T18:09:47.728Z,Queens,Crosstown,G,287,IND,0,G31,Subway,,Flushing Av,-73.950234,0,2024-08-22T18:09:53.410Z,0,row-gnzj_ttgr_rseq,Southbound,FALSE,Bk,40.700377
152,rv-y822-s3b5_2wkw,2024-08-22T18:09:47.728Z,Uptown,8th Av - Fulton St,C B,152,IND,0,A14,Subway,,135 St,-73.947649,0,2024-08-22T18:09:53.410Z,0,row-jpea-6gxv_v696,Downtown,FALSE,M,40.817894
300,rv-kwqb~5vk4.7pyw,2024-08-22T18:09:47.728Z,The Bronx,Broadway - 7Av,1,300,IRT,0,110,Subway,,191 St,-73.929412,0,2024-08-22T18:09:53.410Z,0,row-hrwj.6s45~zqmf,Downtown,FALSE,M,40.855225
447,rv-3f9k~u5bm~8cfr,2024-08-22T18:09:47.728Z,Last Stop,Flushing,7,447,IRT,1,701,Subway,,Flushing-Main St,-73.83003,1,2024-08-22T18:09:53.410Z,1,row-jim9-ihf3_s4nr,Manhattan,FALSE,Q,40.7596
315,rv-2w65.ju9x-yhj9,2024-08-22T18:09:47.728Z,Uptown,Broadway - 7Av,1,614,IRT,1,125,Subway,,59 St-Columbus Circle,-73.981929,1,2024-08-22T18:09:53.410Z,1,row-kbzz-3bq7.nhse,Downtown,TRUE,M,40.768247
432,rv-w3gr-tks9~ca3z,2024-08-22T18:09:47.728Z,Northbound,Lenox - White Plains Rd,2 5,432,IRT,0,219,Elevated,,Prospect Av,-73.90177,0,2024-08-22T18:09:53.410Z,0,row-kwux_kuws-fewk,Manhattan,FALSE,Bx,40.819585
410,rv-g3bv.hx5i_93jr,2024-08-22T18:09:47.728Z,Uptown,Lexington Av,6,623,IRT,1,639,Subway,,Canal St,-74.000193,1,2024-08-22T18:09:53.410Z,1,row-fxu3~u6xs-ktkt,Downtown,TRUE,M,40.718803
37,rv-fmva-8pii-yskd,2024-08-22T18:09:47.728Z,Manhattan,4th Av,R,37,BMT,0,R43,Subway,,77 St,-74.02551,0,2024-08-22T18:09:53.410Z,0,row-bx2i_rd23.t8ae,Bay Ridge,FALSE,Bk,40.629742
168,rv-rruj.g3vk_tbjr,2024-08-22T18:09:47.728Z,Uptown,8th Av - Fulton St,C E,168,IND,0,A33,Subway,,Spring St,-74.003739,0,2024-08-22T18:09:53.410Z,0,row-f6bc.m7t7-k6tp,Downtown,TRUE,M,40.726227
262,rv-nv34~yvxe.dumt,2024-08-22T18:09:47.728Z,Outbound,Queens Blvd,M R,262,IND,0,G09,Subway,,67 Av,-73.852719,0,2024-08-22T18:09:53.410Z,0,row-xa3q.zscb~44xg,Manhattan,FALSE,Q,40.726523
148,rv-q5kh_4ksk~wafz,2024-08-22T18:09:47.728Z,Uptown,8th Av - Fulton St,A C,605,IND,1,A09,Subway,,168 St,-73.939561,1,2024-08-22T18:09:53.410Z,1,row-eahr-937r_vhfh,Downtown,FALSE,M,40.840719
31,rv-tzni-u7r8~v2uc,2024-08-22T18:09:47.728Z,Manhattan,4th Av,R,31,BMT,0,R35,Subway,,25 St,-73.998091,0,2024-08-22T18:09:53.410Z,0,row-scdj-qb4p_r4em,Southbound,FALSE,Bk,40.660397
52,rv-ey7c-zaah-j4td,2024-08-22T18:09:47.728Z,Manhattan,Broadway - Brighton,Q,52,BMT,0,D37,Open Cut,,Avenue U,-73.955929,0,2024-08-22T18:09:53.410Z,0,row-kd3n-jfpa~j473,Southbound,FALSE,Bk,40.5993
405,rv-mn84.q8j5.nchf,2024-08-22T18:09:47.728Z,Uptown,Lexington Av,6,405,IRT,1,634,Subway,,23 St,-73.986599,1,2024-08-22T18:09:53.410Z,1,row-jwt7.afqe-qq5m,Downtown,TRUE,M,40.739864
190,rv-wmi3~7jmk~t2e5,2024-08-22T18:09:47.728Z,Manhattan,Liberty Av,A,190,IND,0,A59,Elevated,,80 St,-73.858992,0,2024-08-22T18:09:53.410Z,0,row-5rge-5un8-qwxt,Outbound,FALSE,Q,40.679371
183,rv-m37v.dmdw~x8jw,2024-08-22T18:09:47.728Z,Manhattan,8th Av - Fulton St,C,183,IND,0,A50,Subway,,Rockaway Av,-73.911946,0,2024-08-22T18:09:53.410Z,0,row-mjwh_2jjc~5nm3,Outbound,FALSE,Bk,40.67834
20,rv-tcmu_ap6t_wcci,2024-08-22T18:09:47.728Z,Uptown,Broadway,R W,20,BMT,0,R24,Subway,,City Hall,-74.006978,0,2024-08-22T18:09:53.410Z,0,row-d4b3.hg64-2rg2,Downtown,TRUE,M,40.713282
422,rv-2j59_ey8n~dx2j,2024-08-22T18:09:47.728Z,Northbound,Lenox - White Plains Rd,2 5,422,IRT,0,209,Elevated,,Burke Av,-73.867164,0,2024-08-22T18:09:53.410Z,0,row-2g95~x83b.gcwy,Manhattan,FALSE,Bx,40.871356
273,rv-k6tw.82ys-9jvd,2024-08-22T18:09:47.728Z,Outbound,Queens Blvd,E M R,273,IND,1,G21,Subway,,Queens Plaza,-73.937243,1,2024-08-22T18:09:53.410Z,1,row-6m4c.4xa8_bnkx,Manhattan,FALSE,Q,40.748973
373,rv-ygvd.t5ap_x7v5,2024-08-22T18:09:47.728Z,Northbound,Pelham,6,373,IRT,1,615,Subway,,E 149 St,-73.904098,1,2024-08-22T18:09:53.410Z,1,row-p8re~rb97.8pyc,Manhattan,FALSE,Bx,40.812118
305,rv-gkae~w88j~ki9k,2024-08-22T18:09:47.728Z,Uptown,Broadway - 7Av,1,305,IRT,0,115,Subway,,137 St-City College,-73.953676,0,2024-08-22T18:09:53.410Z,0,row-4raj-676j-6nek,Downtown,FALSE,M,40.822008
210,rv-a846.agwy_npv2,2024-08-22T18:09:47.728Z,Last Stop,Concourse,D,210,IND,0,D01,Subway,,Norwood-205 St,-73.878855,0,2024-08-22T18:09:53.410Z,0,row-rja9.a88c~dtbg,Manhattan,FALSE,Bx,40.874811
326,rv-c3fz.f2a3-44rq,2024-08-22T18:09:47.728Z,Uptown,Broadway - 7Av,1,326,IRT,0,136,Subway,,Franklin St,-74.006886,0,2024-08-22T18:09:53.410Z,0,row-39en-x6mr-jvgw,Downtown,TRUE,M,40.719318
108,rv-7cq6.cvv7_2wvd,2024-08-22T18:09:47.728Z,Inbound,Myrtle Av,M,108,BMT,1,M01,Elevated,,Middle Village-Metropolitan Av,-73.889601,1,2024-08-22T18:09:53.410Z,1,row-b3u2_3r23~xrkm,Last Stop,FALSE,Q,40.711396
239,rv-6z4f-3ygm~qnzd,2024-08-22T18:09:47.728Z,Northbound,6th Av - Culver,F G,608,IND,0,F23,Viaduct,,4 Av-9 St,-73.989779,0,2024-08-22T18:09:53.410Z,0,row-tuk6_6uma~2wt4,Southbound,FALSE,Bk,40.670272
242,rv-t2ug.wwi7-2rpb,2024-08-22T18:09:47.728Z,Northbound,6th Av - Culver,F G,242,IND,0,F26,Subway,,Fort Hamilton Pkwy,-73.975776,0,2024-08-22T18:09:53.410Z,0,row-9gaa_v6um.si86,Southbound,FALSE,Bk,40.650782
5,rv-rrea.w3ur_qzbh,2024-08-22T18:09:47.728Z,Astoria,Astoria,N W,5,BMT,0,R06,Elevated,,36 Av,-73.929575,0,2024-08-22T18:09:53.410Z,0,row-37xt.xjwa.hdb5,Manhattan,FALSE,Q,40.756804
294,rv-gs6i.dp9f.dwrh,2024-08-22T18:09:47.728Z,Van Cortlandt,Broadway - 7Av,1,294,IRT,0,103,Elevated,,238 St,-73.90087,0,2024-08-22T18:09:53.410Z,0,row-qqj4.wwyb_5iac,Manhattan,FALSE,Bx,40.884667
127,rv-8mbc-vgf8.7uaa,2024-08-22T18:09:47.728Z,Manhattan,Canarsie,L,127,BMT,0,L16,Subway,,DeKalb Av,-73.918425,0,2024-08-22T18:09:53.410Z,0,row-dfs6.6mnj.8h8a,Outbound,FALSE,Bk,40.703811
137,rv-ifr9.u2r2-u7fs,2024-08-22T18:09:47.728Z,Manhattan,Canarsie,L,137,BMT,0,L28,At Grade,,East 105 St,-73.899485,0,2024-08-22T18:09:53.410Z,0,row-exmj-hb9p-ekh6,Canarsie,FALSE,Bk,40.650573
341,rv-napi_53th~s2ys,2024-08-22T18:09:47.728Z,Manhattan,Eastern Pky,2 3,341,IRT,1,238,Subway,,Eastern Pkwy-Brooklyn Museum,-73.964375,1,2024-08-22T18:09:53.410Z,1,row-zte5.cz5z-ygrv,Outbound,FALSE,Bk,40.671987
268,rv-jtu6_qn62~zv3u,2024-08-22T18:09:47.728Z,Outbound,Queens Blvd,M R,268,IND,0,G15,Subway,,65 St,-73.898453,0,2024-08-22T18:09:53.410Z,0,row-inpb-buwq_ij79,Manhattan,FALSE,Q,40.749669
358,rv-wa55_npm8-hnpi,2024-08-22T18:09:47.728Z,Manhattan,Nostrand,2 5,358,IRT,0,246,Subway,,Newkirk Av-Little Haiti,-73.948411,0,2024-08-22T18:09:53.410Z,0,row-2ras~s7ag-89ct,Flatbush,FALSE,Bk,40.639967
80,rv-mxdh.5i99.xayb,2024-08-22T18:09:47.728Z,Jamaica,Jamaica,J Z,80,BMT,0,J12,Elevated,,121 St,-73.828294,0,2024-08-22T18:09:53.410Z,0,row-qqpz-bwdv-8mt7,Manhattan,FALSE,Q,40.700492
195,rv-jut7-qfqy-yw59,2024-08-22T18:09:47.728Z,Manhattan,Liberty Av,A,195,IND,1,A65,Elevated,,Ozone Park-Lefferts Blvd,-73.825798,1,2024-08-22T18:09:53.410Z,1,row-mxnq.5u45-czch,Last Stop,FALSE,Q,40.685951
437,rv-2yxq-xmm6.acqd,2024-08-22T18:09:47.728Z,Harlem,Lenox - White Plains Rd,3,437,IRT,0,302,Subway,,145 St,-73.936245,0,2024-08-22T18:09:53.410Z,0,row-64st.6wwk-m7tg,Downtown,FALSE,M,40.820421
477,rv-ff4s.56sa_rqkf,2024-08-22T18:09:47.728Z,Uptown,Second Av,Q,477,IND,1,Q03,Subway,,72 St,-73.958424,1,2024-08-22T18:09:53.410Z,1,row-jqsd~2qy5~b2eu,Downtown,FALSE,M,40.768799
400,rv-rpsf.fe8e_m8fr,2024-08-22T18:09:47.728Z,Uptown,Lexington Av,4 5 6,613,IRT,0,629,Subway,,59 St,-73.967967,0,2024-08-22T18:09:53.410Z,0,row-rgrt-w7p4_qnmb,Downtown,TRUE,M,40.762526
95,rv-yf9y.wqc9.9bzh,2024-08-22T18:09:47.728Z,Outbound,Jamaica,J Z,95,BMT,0,J30,Elevated,,Gates Av,-73.92227,0,2024-08-22T18:09:53.410Z,0,row-5mrc.sx5d-htyn,Manhattan,FALSE,Bk,40.68963
283,rv-9xtf_9vvq.8dhv,2024-08-22T18:09:47.728Z,Queens,Crosstown,G,283,IND,1,G26,Subway,,Greenpoint Av,-73.954449,1,2024-08-22T18:09:53.410Z,1,row-4k9w_wrdb~agyv,Southbound,FALSE,Bk,40.731352
415,rv-jems~5cme-iz4t,2024-08-22T18:09:47.728Z,Manhattan,Eastern Pky,4 5,620,IRT,0,423,Subway,Manhattan-bound only,Borough Hall,-73.990151,1,2024-08-22T18:09:53.410Z,2,row-gu7m_kn5z.4d7i,Outbound,FALSE,Bk,40.692404
395,rv-8vm3-6cd6_zpa5,2024-08-22T18:09:47.728Z,The Bronx,Lexington Av,6,395,IRT,0,624,Subway,,103 St,-73.947478,0,2024-08-22T18:09:53.410Z,0,row-vcaw.xj3a-stbs,Downtown,FALSE,M,40.7906
463,rv-r2qm~v7h3_ichb,2024-08-22T18:09:47.728Z,Outbound,Flushing,7,463,IRT,0,720,Subway,,Hunters Point Av,-73.948916,0,2024-08-22T18:09:53.410Z,0,row-c4pt-ma6r~7ya9,Manhattan,FALSE,Q,40.742216
332,rv-xr4i_8mn6_5pec,2024-08-22T18:09:47.728Z,Uptown,Clark St,2 3,628,IRT,1,229,Subway,,Fulton St,-74.006571,1,2024-08-22T18:09:53.410Z,1,row-ymxr_8gka-j7mn,Brooklyn,TRUE,M,40.709416
427,rv-n7cb-gxs5.g2rn,2024-08-22T18:09:47.728Z,Northbound,Lenox - White Plains Rd,2 5,427,IRT,0,214,Elevated,,West Farms Sq-E Tremont Av,-73.880049,0,2024-08-22T18:09:53.410Z,0,row-inam_hsk2~pdti,Manhattan,FALSE,Bx,40.840295
459,rv-3epx~zdwz-upwk,2024-08-22T18:09:47.728Z,Outbound,Flushing,7,459,IRT,0,715,Elevated,,40 St-Lowery St,-73.924016,0,2024-08-22T18:09:53.410Z,0,row-3zt8-jjmc~3esp,Manhattan,FALSE,Q,40.743781
132,rv-tpim.w9a6_p3ey,2024-08-22T18:09:47.728Z,Manhattan,Canarsie,L,621,BMT,0,L22,Elevated,,Broadway Junction,-73.90324,0,2024-08-22T18:09:53.410Z,0,row-9xr3-8b2m~zede,Outbound,FALSE,Bk,40.678856
48,rv-e6vf-55a8~wc59,2024-08-22T18:09:47.728Z,Manhattan,Broadway - Brighton,Q,48,BMT,1,D32,Open Cut,,Avenue H,-73.961639,1,2024-08-22T18:09:53.410Z,1,row-i26g~z27y~q4nv,Southbound,FALSE,Bk,40.62927
16,rv-j9bm_nuw2-dtyh,2024-08-22T18:09:47.728Z,Uptown,Broadway - Brighton,R W,16,BMT,0,R21,Subway,,8 St-NYU,-73.992629,0,2024-08-22T18:09:53.410Z,0,row-hr8c.zud5~w4ma,Downtown,TRUE,M,40.730328
164,rv-kik2_z2g2~8u2h,2024-08-22T18:09:47.728Z,Uptown,8th Av - Fulton St,A C E,164,IND,1,A28,Subway,,34 St-Penn Station,-73.993391,1,2024-08-22T18:09:53.410Z,1,row-iisq.hffb_u5qh,Downtown,TRUE,M,40.752287
200,rv-ethw_g29w_6v7v,2024-08-22T18:09:47.728Z,Inbound,Rockaway,A S,200,IND,0,H12,Viaduct,,Beach 90 St,-73.813641,0,2024-08-22T18:09:53.410Z,0,row-p4nv.s3i6_budq,Rockaway Park,FALSE,Q,40.588034
69,rv-c8vk-rrgr~jehv,2024-08-22T18:09:47.728Z,Manhattan,West End,D,69,BMT,0,B22,Elevated,,25 Av,-73.986829,0,2024-08-22T18:09:53.410Z,0,row-rci9-r7rk.6puz,Coney Island,FALSE,Bk,40.597704
63,rv-2g4u.6q36.uuf9,2024-08-22T18:09:47.728Z,Manhattan,West End,D,615,BMT,1,B16,Elevated,,62 St,-73.996895,1,2024-08-22T18:09:53.410Z,1,row-6b4e.56n4_4uwg,Southbound,FALSE,Bk,40.626472
178,rv-zavh.i2fp-tb64,2024-08-22T18:09:47.728Z,Manhattan,8th Av - Fulton St,C,627,IND,1,A45,Subway,,Franklin Av,-73.956848,1,2024-08-22T18:09:53.410Z,1,row-f9aq_86n9-dx5v,Outbound,FALSE,Bk,40.68138
277,rv-3gyy~qnkv.43ka,2024-08-22T18:09:47.728Z,Outbound,Queens Blvd,E B D,277,IND,0,D14,Subway,,7 Av,-73.981637,0,2024-08-22T18:09:53.410Z,0,row-9udn-xarq~6dnz,Downtown,TRUE,M,40.762862
442,rv-nz58~7kpd.c4hh,2024-08-22T18:09:47.728Z,Last Stop,Dyre Av,5,442,IRT,0,501,At Grade,,Eastchester-Dyre Av,-73.830834,0,2024-08-22T18:09:53.410Z,0,row-9i2n~yst6~bwi9,Manhattan,FALSE,Bx,40.8883
369,rv-jutz~8t4v-r69d,2024-08-22T18:09:47.728Z,Northbound,Pelham,6,369,IRT,0,611,Elevated,,Elder Av,-73.879159,0,2024-08-22T18:09:53.410Z,0,row-m8va_xdz5.2evp,Manhattan,FALSE,Bx,40.828584
91,rv-cvyr-w6fc-y4sc,2024-08-22T18:09:47.728Z,Outbound,Jamaica,J Z,91,BMT,0,J24,Elevated,,Alabama Av,-73.898654,0,2024-08-22T18:09:53.410Z,0,row-zfbd~rhgh_y2ax,Manhattan,FALSE,Bk,40.676992
112,rv-i2qa~ndhf-nk7r,2024-08-22T18:09:47.728Z,Inbound,Myrtle Av,M,630,BMT,1,M08,Elevated,,Myrtle-Wyckoff Avs,-73.912385,1,2024-08-22T18:09:53.410Z,1,row-i58s-6r82.rdz6,Middle Village,FALSE,Bk,40.69943
254,rv-fsek-8dsj~77zq,2024-08-22T18:09:47.728Z,Last Stop,Queens Blvd,F,254,IND,1,F01,Subway,,Jamaica-179 St,-73.783817,1,2024-08-22T18:09:53.410Z,1,row-e33z_hvuu-qxp8,Manhattan,FALSE,Q,40.712646
227,rv-ih88.3srf.8csi,2024-08-22T18:09:47.728Z,Uptown,6th Av - Culver,B D F M,607,IND,1,D17,Subway,,34 St-Herald Sq,-73.987823,1,2024-08-22T18:09:53.410Z,1,row-fm8s-2chk.dbc7,Downtown,TRUE,M,40.749719
322,rv-trc2_ks5q-5yj6,2024-08-22T18:09:47.728Z,Uptown,Broadway - 7Av,1 2 3,601,IRT,0,132,Subway,,14 St,-74.000201,0,2024-08-22T18:09:53.410Z,0,row-3y7t.ayw8~9mcv,Downtown,TRUE,M,40.737826
512,rv-hj49-an6d.yu9w,2024-08-22T18:09:47.728Z,Ferry,Staten Island,SIR,512,SIR,0,S20,Embankment,,Bay Terrace,-74.136907,0,2024-08-22T18:09:53.410Z,0,row-vsjm.yfqg~8iai,South Shore,FALSE,SI,40.5564
337,rv-mvan.wzeh_imud,2024-08-22T18:09:47.728Z,Manhattan,Eastern Pky,2 3 4 5,337,IRT,0,234,Subway,,Nevins St,-73.980492,0,2024-08-22T18:09:53.410Z,0,row-t74f_qsxk_6u4r,Outbound,FALSE,Bk,40.688246
123,rv-rfdu.jndd.jmq5,2024-08-22T18:09:47.728Z,Manhattan,Canarsie,L,123,BMT,1,L12,Subway,,Grand St,-73.94067,1,2024-08-22T18:09:53.410Z,1,row-9wv4_gjwz.y936,Outbound,FALSE,Bk,40.711926
468,rv-dpjd~nvmi_fpxr,2024-08-22T18:09:47.728Z,Last Stop,Lexington - Shuttle,S,611,IRT,1,902,Subway,,Times Sq-42 St,-73.986229,1,2024-08-22T18:09:53.410Z,1,row-trpb~jzhm.idi6,Grand Central,TRUE,M,40.755983
354,rv-ty93.cbr7-s6vu,2024-08-22T18:09:47.728Z,Manhattan,Nostrand,2 5,354,IRT,0,242,Subway,,Sterling St,-73.95085,0,2024-08-22T18:09:53.410Z,0,row-efin~v7ik.c85r,Flatbush,FALSE,Bk,40.662742
84,rv-qvpm_rk9f.gxka,2024-08-22T18:09:47.728Z,Jamaica,Jamaica,J,84,BMT,0,J16,Elevated,,85 St-Forest Pkwy,-73.86001,0,2024-08-22T18:09:53.410Z,0,row-pitj-ymih_s2ii,Manhattan,FALSE,Q,40.692435
309,rv-84tw-b5ab.53qj,2024-08-22T18:09:47.728Z,Uptown,Broadway - 7Av,1,309,IRT,0,119,Subway,,103 St,-73.968379,0,2024-08-22T18:09:53.410Z,0,row-ykvi_8xxg~dbry,Downtown,FALSE,M,40.799446
215,rv-8p7g_jdy8-vghf,2024-08-22T18:09:47.728Z,Northbound,Concourse,B D,215,IND,1,D07,Subway,,Tremont Av,-73.905227,1,2024-08-22T18:09:53.410Z,1,row-c9he_j7p6~9b8m,Manhattan,FALSE,Bx,40.85041
517,rv-h5ux~yygr-nkmh,2024-08-22T18:09:47.728Z,Ferry,Staten Island,SIR,517,SIR,0,S15,Open Cut,,Prince's Bay,-74.200064,0,2024-08-22T18:09:53.410Z,0,row-48rg~4zsa-8erj,South Shore,FALSE,SI,40.525507
222,rv-xcns-fyp5~xyfi,2024-08-22T18:09:47.728Z,Queens,63rd St,F,222,IND,1,B06,Subway,,Roosevelt Island,-73.95326,1,2024-08-22T18:09:53.410Z,1,row-8xwe.yn2v-k7hk,Downtown,FALSE,M,40.759145
454,rv-69fh.7bvy-b285,2024-08-22T18:09:47.728Z,Outbound,Flushing,7,616,IRT,1,710,Elevated,,74 St-Broadway,-73.891394,1,2024-08-22T18:09:53.410Z,1,row-qvqb_67py_ugce,Manhattan,FALSE,Q,40.746848
364,rv-2uqg~mwf4.xk57,2024-08-22T18:09:47.728Z,Pelham Bay,Pelham,6,364,IRT,0,606,Elevated,,Zerega Av,-73.847036,0,2024-08-22T18:09:53.410Z,0,row-xbd7~iga4_225w,Manhattan,FALSE,Bx,40.836488
232,rv-3dvk-dg3w.vrip,2024-08-22T18:09:47.728Z,Uptown,6th Av - Culver,F,232,IND,0,F14,Subway,,2 Av,-73.989938,0,2024-08-22T18:09:53.410Z,0,row-5hxy-wj7d_hsfw,Downtown,TRUE,M,40.723402
101,rv-db4h.8u24-s97x,2024-08-22T18:09:47.728Z,Outbound,Jamaica,M J Z,101,BMT,1,M16,Elevated,,Marcy Av,-73.957757,1,2024-08-22T18:09:53.410Z,1,row-j7cw_xbvt_tuig,Manhattan,FALSE,Bk,40.708359